{
  "scraped_at": "2026-03-25T10:05:39.374Z",
  "total_sites_ph": 1590,
  "ncr_sites": 932,
  "by_type": {
    "Landfill": 173,
    "Recycling Center": 1116,
    "Waste Disposal": 120,
    "Wastewater Plant": 107,
    "Scrap Yard": 74
  },
  "by_source": {
    "gpw": 0,
    "osm": 1590
  },
  "sites": [
    {
      "id": "osm-0001",
      "name": "New San Mateo Landfill",
      "lat": 14.6952094,
      "lng": 121.1663201,
      "area_sqm": null,
      "type": "Landfill",
      "confidence": null,
      "detected_date": null,
      "source": "OpenStreetMap",
      "osm_id": 344090633,
      "osm_type": "node",
      "tags": {
        "landuse": "landfill",
        "name": "New San Mateo Landfill"
      }
    },
    {
      "id": "osm-0002",
      "name": "Tacas Junkshop",
      "lat": 14.5513384,
      "lng": 121.1196519,
      "area_sqm": null,
      "type": "Recycling Center",
      "confidence": null,
      "detected_date": null,
      "source": "OpenStreetMap",
      "osm_id": 411935750,
      "osm_type": "node",
      "tags": {
        "addr:city": "Taytay",
        "addr:postcode": "1920",
        "addr:province": "Rizal",
        "amenity": "recycling",
        "name": "Tacas Junkshop",
        "recycling_type": "centre"
      }
    },
    {
      "id": "osm-0003",
      "name": "Recycling Center (OSM 427966150)",
      "lat": 14.1737619,
      "lng": 121.247663,
      "area_sqm": null,
      "type": "Recycling Center",
      "confidence": null,
      "detected_date": null,
      "source": "OpenStreetMap",
      "osm_id": 427966150,
      "osm_type": "node",
      "tags": {
        "amenity": "recycling"
      }
    },
    {
      "id": "osm-0004",
      "name": "Recycling Center (OSM 441029690)",
      "lat": 7.0694402,
      "lng": 125.6004556,
      "area_sqm": null,
      "type": "Recycling Center",
      "confidence": null,
      "detected_date": null,
      "source": "OpenStreetMap",
      "osm_id": 441029690,
      "osm_type": "node",
      "tags": {
        "access": "private",
        "amenity": "recycling",
        "operator:type": "school",
        "recycling:cans": "yes",
        "recycling:glass": "no",
        "recycling:paper": "yes",
        "recycling_type": "container"
      }
    },
    {
      "id": "osm-0005",
      "name": "Boracay Materials Recovery Facility",
      "lat": 11.9747185,
      "lng": 121.9196473,
      "area_sqm": null,
      "type": "Recycling Center",
      "confidence": null,
      "detected_date": null,
      "source": "OpenStreetMap",
      "osm_id": 592712393,
      "osm_type": "node",
      "tags": {
        "amenity": "recycling",
        "name": "Boracay Materials Recovery Facility",
        "recycling_type": "centre"
      }
    },
    {
      "id": "osm-0006",
      "name": "Zaldy Junk Shop",
      "lat": 15.048701,
      "lng": 120.6700939,
      "area_sqm": null,
      "type": "Recycling Center",
      "confidence": null,
      "detected_date": null,
      "source": "OpenStreetMap",
      "osm_id": 871480442,
      "osm_type": "node",
      "tags": {
        "amenity": "recycling",
        "name": "Zaldy Junk Shop",
        "recycling_type": "centre"
      }
    },
    {
      "id": "osm-0007",
      "name": "Malolos Waste Center",
      "lat": 14.8084904,
      "lng": 120.8438637,
      "area_sqm": null,
      "type": "Recycling Center",
      "confidence": null,
      "detected_date": null,
      "source": "OpenStreetMap",
      "osm_id": 890169778,
      "osm_type": "node",
      "tags": {
        "amenity": "recycling",
        "name": "Malolos Waste Center"
      }
    },
    {
      "id": "osm-0008",
      "name": "Junk Shop",
      "lat": 11.0487324,
      "lng": 124.592427,
      "area_sqm": null,
      "type": "Recycling Center",
      "confidence": null,
      "detected_date": null,
      "source": "OpenStreetMap",
      "osm_id": 1011312753,
      "osm_type": "node",
      "tags": {
        "amenity": "recycling",
        "name": "Junk Shop"
      }
    },
    {
      "id": "osm-0009",
      "name": "MRF",
      "lat": 11.0738772,
      "lng": 124.5935927,
      "area_sqm": null,
      "type": "Recycling Center",
      "confidence": null,
      "detected_date": null,
      "source": "OpenStreetMap",
      "osm_id": 1035642314,
      "osm_type": "node",
      "tags": {
        "amenity": "recycling",
        "description": "Material Recovery Facilities (sic)",
        "name": "MRF"
      }
    },
    {
      "id": "osm-0010",
      "name": "Marvin Jason Trading & Construction",
      "lat": 9.7557646,
      "lng": 118.7472907,
      "area_sqm": null,
      "type": "Recycling Center",
      "confidence": null,
      "detected_date": null,
      "source": "OpenStreetMap",
      "osm_id": 1220014947,
      "osm_type": "node",
      "tags": {
        "addr:city": "Puerto Princesa",
        "addr:quarter": "San Pedro",
        "addr:street": "Puerto Princesa South Road",
        "amenity": "recycling",
        "name": "Marvin Jason Trading & Construction",
        "recycling_type": "centre",
        "shop": "hardware"
      }
    },
    {
      "id": "osm-0011",
      "name": "General Motors & Machine Shop",
      "lat": 9.7558094,
      "lng": 118.7472968,
      "area_sqm": null,
      "type": "Recycling Center",
      "confidence": null,
      "detected_date": null,
      "source": "OpenStreetMap",
      "osm_id": 1220014967,
      "osm_type": "node",
      "tags": {
        "addr:city": "Puerto Princesa",
        "addr:quarter": "San Pedro",
        "addr:street": "Puerto Princesa South Road",
        "amenity": "recycling",
        "name": "General Motors & Machine Shop",
        "recycling_type": "centre",
        "shop": "car_repair"
      }
    },
    {
      "id": "osm-0012",
      "name": "Vulcanizing Shop",
      "lat": 9.7561806,
      "lng": 118.7473761,
      "area_sqm": null,
      "type": "Recycling Center",
      "confidence": null,
      "detected_date": null,
      "source": "OpenStreetMap",
      "osm_id": 1220014979,
      "osm_type": "node",
      "tags": {
        "addr:city": "Puerto Princesa",
        "addr:quarter": "San Pedro",
        "addr:street": "Puerto Princesa South Road",
        "amenity": "recycling",
        "name": "Vulcanizing Shop",
        "recycling_type": "centre",
        "shop": "vulcanizing"
      }
    },
    {
      "id": "osm-0013",
      "name": "Uniworld Junkshop",
      "lat": 9.7561133,
      "lng": 118.7473584,
      "area_sqm": null,
      "type": "Recycling Center",
      "confidence": null,
      "detected_date": null,
      "source": "OpenStreetMap",
      "osm_id": 1220014999,
      "osm_type": "node",
      "tags": {
        "addr:city": "Puerto Princesa",
        "addr:quarter": "San Pedro",
        "addr:street": "Puerto Princesa South Road",
        "amenity": "recycling",
        "name": "Uniworld Junkshop",
        "recycling_type": "centre"
      }
    },
    {
      "id": "osm-0014",
      "name": "VGM Junkshop",
      "lat": 14.5466539,
      "lng": 121.0121077,
      "area_sqm": null,
      "type": "Recycling Center",
      "confidence": null,
      "detected_date": null,
      "source": "OpenStreetMap",
      "osm_id": 1381245369,
      "osm_type": "node",
      "tags": {
        "addr:street": "Captain A. Apolinario Street",
        "amenity": "recycling",
        "name": "VGM Junkshop",
        "recycling_type": "centre"
      }
    },
    {
      "id": "osm-0015",
      "name": "Material Recovery Facility",
      "lat": 7.1114537,
      "lng": 125.6373872,
      "area_sqm": null,
      "type": "Recycling Center",
      "confidence": null,
      "detected_date": null,
      "source": "OpenStreetMap",
      "osm_id": 1449617161,
      "osm_type": "node",
      "tags": {
        "amenity": "recycling",
        "name": "Material Recovery Facility",
        "recycling:cans": "yes",
        "recycling:paper": "yes",
        "recycling:scrap_metal": "yes",
        "recycling_type": "centre"
      }
    },
    {
      "id": "osm-0016",
      "name": "Recycling Center (OSM 1464727691)",
      "lat": 14.2872676,
      "lng": 121.0016057,
      "area_sqm": null,
      "type": "Recycling Center",
      "confidence": null,
      "detected_date": null,
      "source": "OpenStreetMap",
      "osm_id": 1464727691,
      "osm_type": "node",
      "tags": {
        "amenity": "recycling",
        "note": "Junk Shop",
        "recycling_type": "centre"
      }
    },
    {
      "id": "osm-0017",
      "name": "Diego Junk Shop",
      "lat": 6.430631,
      "lng": 124.7734862,
      "area_sqm": null,
      "type": "Recycling Center",
      "confidence": null,
      "detected_date": null,
      "source": "OpenStreetMap",
      "osm_id": 1833450202,
      "osm_type": "node",
      "tags": {
        "addr:city": "Banga",
        "addr:postcode": "9511",
        "addr:province": "South Cotabato",
        "amenity": "recycling",
        "name": "Diego Junk Shop",
        "recycling_type": "centre"
      }
    },
    {
      "id": "osm-0018",
      "name": "Recycling Center (OSM 1865205545)",
      "lat": 8.1896514,
      "lng": 125.1443345,
      "area_sqm": null,
      "type": "Recycling Center",
      "confidence": null,
      "detected_date": null,
      "source": "OpenStreetMap",
      "osm_id": 1865205545,
      "osm_type": "node",
      "tags": {
        "amenity": "recycling",
        "recycling_type": "centre"
      }
    },
    {
      "id": "osm-0019",
      "name": "Iloilo Metal Center",
      "lat": 10.6976483,
      "lng": 122.5657564,
      "area_sqm": null,
      "type": "Recycling Center",
      "confidence": null,
      "detected_date": null,
      "source": "OpenStreetMap",
      "osm_id": 1910812403,
      "osm_type": "node",
      "tags": {
        "amenity": "recycling",
        "name": "Iloilo Metal Center",
        "recycling_type": "centre"
      }
    },
    {
      "id": "osm-0020",
      "name": "Recycling Center (OSM 1948657936)",
      "lat": 14.3140965,
      "lng": 121.0538241,
      "area_sqm": null,
      "type": "Recycling Center",
      "confidence": null,
      "detected_date": null,
      "source": "OpenStreetMap",
      "osm_id": 1948657936,
      "osm_type": "node",
      "tags": {
        "amenity": "recycling",
        "recycling:cans": "yes",
        "recycling:paper": "yes",
        "source": "survey"
      }
    },
    {
      "id": "osm-0021",
      "name": "RTL Junkshop",
      "lat": 14.1239123,
      "lng": 120.9689912,
      "area_sqm": null,
      "type": "Recycling Center",
      "confidence": null,
      "detected_date": null,
      "source": "OpenStreetMap",
      "osm_id": 1964896179,
      "osm_type": "node",
      "tags": {
        "addr:city": "Tagaytay",
        "addr:street": "Isaac O. Tolentino Avenue",
        "amenity": "recycling",
        "name": "RTL Junkshop"
      }
    },
    {
      "id": "osm-0022",
      "name": "N.M. Material Recovery Facility (junk shop)",
      "lat": 14.592923,
      "lng": 121.1713284,
      "area_sqm": null,
      "type": "Recycling Center",
      "confidence": null,
      "detected_date": null,
      "source": "OpenStreetMap",
      "osm_id": 2004106459,
      "osm_type": "node",
      "tags": {
        "addr:province": "Rizal",
        "amenity": "recycling",
        "name": "N.M. Material Recovery Facility (junk shop)"
      }
    },
    {
      "id": "osm-0023",
      "name": "Primo's Junk Shop",
      "lat": 15.1441491,
      "lng": 120.9772896,
      "area_sqm": null,
      "type": "Recycling Center",
      "confidence": null,
      "detected_date": null,
      "source": "OpenStreetMap",
      "osm_id": 2264069128,
      "osm_type": "node",
      "tags": {
        "amenity": "recycling",
        "name": "Primo's Junk Shop"
      }
    },
    {
      "id": "osm-0024",
      "name": "Alphagracia Materials Recovery Facility (MRF)",
      "lat": 14.5912301,
      "lng": 121.1818981,
      "area_sqm": null,
      "type": "Recycling Center",
      "confidence": null,
      "detected_date": null,
      "source": "OpenStreetMap",
      "osm_id": 2393689410,
      "osm_type": "node",
      "tags": {
        "addr:city": "Antipolo",
        "addr:province": "Rizal",
        "addr:street": "Sen. L Sumulong Memorial Circle",
        "amenity": "recycling",
        "name": "Alphagracia Materials Recovery Facility (MRF)"
      }
    },
    {
      "id": "osm-0025",
      "name": "Cecile Junk Shop",
      "lat": 14.5910145,
      "lng": 121.1820146,
      "area_sqm": null,
      "type": "Recycling Center",
      "confidence": null,
      "detected_date": null,
      "source": "OpenStreetMap",
      "osm_id": 2393689418,
      "osm_type": "node",
      "tags": {
        "addr:city": "Antipolo",
        "addr:province": "Rizal",
        "addr:street": "Senator L. Sumulong Memorial Circle",
        "amenity": "recycling",
        "name": "Cecile Junk Shop",
        "recycling_type": "centre"
      }
    },
    {
      "id": "osm-0026",
      "name": "NM Materials Recovery Facility",
      "lat": 14.5970715,
      "lng": 121.1806601,
      "area_sqm": null,
      "type": "Recycling Center",
      "confidence": null,
      "detected_date": null,
      "source": "OpenStreetMap",
      "osm_id": 2425637146,
      "osm_type": "node",
      "tags": {
        "addr:city": "Antipolo",
        "addr:province": "Rizal",
        "addr:street": "Bayugo-Buliran Road",
        "amenity": "recycling",
        "name": "NM Materials Recovery Facility"
      }
    },
    {
      "id": "osm-0027",
      "name": "Joel & Khen Scrap Woods",
      "lat": 14.5315676,
      "lng": 121.1439518,
      "area_sqm": null,
      "type": "Recycling Center",
      "confidence": null,
      "detected_date": null,
      "source": "OpenStreetMap",
      "osm_id": 2443064616,
      "osm_type": "node",
      "tags": {
        "addr:city": "Angono",
        "addr:province": "Rizal",
        "amenity": "recycling",
        "name": "Joel & Khen Scrap Woods"
      }
    },
    {
      "id": "osm-0028",
      "name": "Roldan Palochina",
      "lat": 14.5315338,
      "lng": 121.1438773,
      "area_sqm": null,
      "type": "Recycling Center",
      "confidence": null,
      "detected_date": null,
      "source": "OpenStreetMap",
      "osm_id": 2443064629,
      "osm_type": "node",
      "tags": {
        "addr:city": "Angono",
        "addr:province": "Rizal",
        "amenity": "recycling",
        "name": "Roldan Palochina"
      }
    },
    {
      "id": "osm-0029",
      "name": "Remel Junk Shop",
      "lat": 15.2180635,
      "lng": 120.666154,
      "area_sqm": null,
      "type": "Recycling Center",
      "confidence": null,
      "detected_date": null,
      "source": "OpenStreetMap",
      "osm_id": 2562838850,
      "osm_type": "node",
      "tags": {
        "amenity": "recycling",
        "name": "Remel Junk Shop",
        "note": "Specializing in metal",
        "recycling:cans": "yes",
        "recycling:clothes": "no",
        "recycling:electrical_appliances": "yes",
        "recycling:glass": "no",
        "recycling:glass_bottles": "no",
        "recycling:plastic": "yes",
        "recycling:plastic_bottles": "yes",
        "recycling:scrap_metal": "yes",
        "recycling:small_appliances": "yes",
        "recycling:waste": "no",
        "recycling_type": "centre",
        "source": "local knowledge"
      }
    },
    {
      "id": "osm-0030",
      "name": "Potpot Junkshop",
      "lat": 14.8633916,
      "lng": 120.2416108,
      "area_sqm": null,
      "type": "Recycling Center",
      "confidence": null,
      "detected_date": null,
      "source": "OpenStreetMap",
      "osm_id": 2583112418,
      "osm_type": "node",
      "tags": {
        "amenity": "recycling",
        "name": "Potpot Junkshop"
      }
    },
    {
      "id": "osm-0031",
      "name": "Waste Disposal (OSM 2672533787)",
      "lat": 14.6531673,
      "lng": 121.0586023,
      "area_sqm": null,
      "type": "Waste Disposal",
      "confidence": null,
      "detected_date": null,
      "source": "OpenStreetMap",
      "osm_id": 2672533787,
      "osm_type": "node",
      "tags": {
        "amenity": "waste_disposal"
      }
    },
    {
      "id": "osm-0032",
      "name": "Waste Disposal (OSM 2672533792)",
      "lat": 14.6546828,
      "lng": 121.0680508,
      "area_sqm": null,
      "type": "Waste Disposal",
      "confidence": null,
      "detected_date": null,
      "source": "OpenStreetMap",
      "osm_id": 2672533792,
      "osm_type": "node",
      "tags": {
        "amenity": "waste_disposal"
      }
    },
    {
      "id": "osm-0033",
      "name": "Leoj JunkShop",
      "lat": 14.8573925,
      "lng": 120.2449571,
      "area_sqm": null,
      "type": "Recycling Center",
      "confidence": null,
      "detected_date": null,
      "source": "OpenStreetMap",
      "osm_id": 2713600693,
      "osm_type": "node",
      "tags": {
        "amenity": "recycling",
        "name": "Leoj JunkShop"
      }
    },
    {
      "id": "osm-0034",
      "name": "DV JunkShop",
      "lat": 14.8572226,
      "lng": 120.2449123,
      "area_sqm": null,
      "type": "Recycling Center",
      "confidence": null,
      "detected_date": null,
      "source": "OpenStreetMap",
      "osm_id": 2713600973,
      "osm_type": "node",
      "tags": {
        "amenity": "recycling",
        "name": "DV JunkShop"
      }
    },
    {
      "id": "osm-0035",
      "name": "Nino JunkShop",
      "lat": 14.8528987,
      "lng": 120.2501978,
      "area_sqm": null,
      "type": "Recycling Center",
      "confidence": null,
      "detected_date": null,
      "source": "OpenStreetMap",
      "osm_id": 2716464597,
      "osm_type": "node",
      "tags": {
        "amenity": "recycling",
        "name": "Nino JunkShop"
      }
    },
    {
      "id": "osm-0036",
      "name": "Recycling Center (OSM 2794196026)",
      "lat": 14.8590058,
      "lng": 120.2571524,
      "area_sqm": null,
      "type": "Recycling Center",
      "confidence": null,
      "detected_date": null,
      "source": "OpenStreetMap",
      "osm_id": 2794196026,
      "osm_type": "node",
      "tags": {
        "amenity": "recycling",
        "recycling_type": "centre"
      }
    },
    {
      "id": "osm-0037",
      "name": "Recycling Center (OSM 2794217684)",
      "lat": 14.8583197,
      "lng": 120.2571327,
      "area_sqm": null,
      "type": "Recycling Center",
      "confidence": null,
      "detected_date": null,
      "source": "OpenStreetMap",
      "osm_id": 2794217684,
      "osm_type": "node",
      "tags": {
        "amenity": "recycling",
        "recycling_type": "centre"
      }
    },
    {
      "id": "osm-0038",
      "name": "JunkShop",
      "lat": 14.8553188,
      "lng": 120.2573953,
      "area_sqm": null,
      "type": "Recycling Center",
      "confidence": null,
      "detected_date": null,
      "source": "OpenStreetMap",
      "osm_id": 2805563434,
      "osm_type": "node",
      "tags": {
        "amenity": "recycling",
        "name": "JunkShop"
      }
    },
    {
      "id": "osm-0039",
      "name": "JunkShop",
      "lat": 14.8537186,
      "lng": 120.2553427,
      "area_sqm": null,
      "type": "Recycling Center",
      "confidence": null,
      "detected_date": null,
      "source": "OpenStreetMap",
      "osm_id": 2812544067,
      "osm_type": "node",
      "tags": {
        "amenity": "recycling",
        "name": "JunkShop"
      }
    },
    {
      "id": "osm-0040",
      "name": "Waste Water Treatment Facility",
      "lat": 6.9147492,
      "lng": 122.0806137,
      "area_sqm": null,
      "type": "Wastewater Plant",
      "confidence": null,
      "detected_date": null,
      "source": "OpenStreetMap",
      "osm_id": 2814458135,
      "osm_type": "node",
      "tags": {
        "man_made": "wastewater_plant",
        "name": "Waste Water Treatment Facility",
        "operator": "Zamboanga Doctor's Hospital"
      }
    },
    {
      "id": "osm-0041",
      "name": "Jimmy JunkShop",
      "lat": 14.8712703,
      "lng": 120.2354764,
      "area_sqm": null,
      "type": "Recycling Center",
      "confidence": null,
      "detected_date": null,
      "source": "OpenStreetMap",
      "osm_id": 2841086270,
      "osm_type": "node",
      "tags": {
        "amenity": "recycling",
        "name": "Jimmy JunkShop"
      }
    },
    {
      "id": "osm-0042",
      "name": "JunkShop",
      "lat": 14.869908,
      "lng": 120.2355155,
      "area_sqm": null,
      "type": "Recycling Center",
      "confidence": null,
      "detected_date": null,
      "source": "OpenStreetMap",
      "osm_id": 2841138975,
      "osm_type": "node",
      "tags": {
        "amenity": "recycling",
        "name": "JunkShop"
      }
    },
    {
      "id": "osm-0043",
      "name": "JunkShop",
      "lat": 14.8676774,
      "lng": 120.2449315,
      "area_sqm": null,
      "type": "Recycling Center",
      "confidence": null,
      "detected_date": null,
      "source": "OpenStreetMap",
      "osm_id": 2843546819,
      "osm_type": "node",
      "tags": {
        "amenity": "recycling",
        "name": "JunkShop"
      }
    },
    {
      "id": "osm-0044",
      "name": "Keppel Warehouse",
      "lat": 14.8952011,
      "lng": 120.2300147,
      "area_sqm": null,
      "type": "Scrap Yard",
      "confidence": null,
      "detected_date": null,
      "source": "OpenStreetMap",
      "osm_id": 2886752676,
      "osm_type": "node",
      "tags": {
        "industrial": "scrap_yard",
        "landuse": "industrial",
        "name": "Keppel Warehouse"
      }
    },
    {
      "id": "osm-0045",
      "name": "JQ JunkShop",
      "lat": 14.852327,
      "lng": 120.2518725,
      "area_sqm": null,
      "type": "Recycling Center",
      "confidence": null,
      "detected_date": null,
      "source": "OpenStreetMap",
      "osm_id": 2900179302,
      "osm_type": "node",
      "tags": {
        "amenity": "recycling",
        "name": "JQ JunkShop",
        "recycling:cans": "yes"
      }
    },
    {
      "id": "osm-0046",
      "name": "JC Junkshop",
      "lat": 14.8967971,
      "lng": 120.2301945,
      "area_sqm": null,
      "type": "Recycling Center",
      "confidence": null,
      "detected_date": null,
      "source": "OpenStreetMap",
      "osm_id": 2918250008,
      "osm_type": "node",
      "tags": {
        "amenity": "recycling",
        "name": "JC Junkshop",
        "recycling_type": "centre"
      }
    },
    {
      "id": "osm-0047",
      "name": "Junk Shop",
      "lat": 14.9002224,
      "lng": 120.2311856,
      "area_sqm": null,
      "type": "Recycling Center",
      "confidence": null,
      "detected_date": null,
      "source": "OpenStreetMap",
      "osm_id": 2918261401,
      "osm_type": "node",
      "tags": {
        "amenity": "recycling",
        "name": "Junk Shop"
      }
    },
    {
      "id": "osm-0048",
      "name": "RGM Junk Shop",
      "lat": 14.244968,
      "lng": 121.1249761,
      "area_sqm": null,
      "type": "Recycling Center",
      "confidence": null,
      "detected_date": null,
      "source": "OpenStreetMap",
      "osm_id": 2933754325,
      "osm_type": "node",
      "tags": {
        "addr:city": "Cabuyao",
        "addr:postcode": "4025",
        "addr:street": "Pulo-Diezmo Road",
        "amenity": "recycling",
        "name": "RGM Junk Shop"
      }
    },
    {
      "id": "osm-0049",
      "name": "Leoj JunkShop",
      "lat": 14.8565873,
      "lng": 120.2447423,
      "area_sqm": null,
      "type": "Recycling Center",
      "confidence": null,
      "detected_date": null,
      "source": "OpenStreetMap",
      "osm_id": 2955382977,
      "osm_type": "node",
      "tags": {
        "amenity": "recycling",
        "name": "Leoj JunkShop",
        "recycling_type": "container"
      }
    },
    {
      "id": "osm-0050",
      "name": "JunkShop",
      "lat": 14.8522265,
      "lng": 120.252415,
      "area_sqm": null,
      "type": "Recycling Center",
      "confidence": null,
      "detected_date": null,
      "source": "OpenStreetMap",
      "osm_id": 2962155903,
      "osm_type": "node",
      "tags": {
        "amenity": "recycling",
        "name": "JunkShop"
      }
    },
    {
      "id": "osm-0051",
      "name": "Princess Icha",
      "lat": 14.6940103,
      "lng": 121.0196523,
      "area_sqm": null,
      "type": "Recycling Center",
      "confidence": null,
      "detected_date": null,
      "source": "OpenStreetMap",
      "osm_id": 2996185528,
      "osm_type": "node",
      "tags": {
        "addr:city": "Valenzuela",
        "addr:street": "Sulok Street",
        "amenity": "recycling",
        "mapillary": "1944661512390259",
        "name": "Princess Icha",
        "opening_hours": "24/7",
        "recycling_type": "centre"
      }
    },
    {
      "id": "osm-0052",
      "name": "Junk Shop",
      "lat": 14.9005881,
      "lng": 120.5464536,
      "area_sqm": null,
      "type": "Recycling Center",
      "confidence": null,
      "detected_date": null,
      "source": "OpenStreetMap",
      "osm_id": 3001614652,
      "osm_type": "node",
      "tags": {
        "amenity": "recycling",
        "name": "Junk Shop",
        "recycling:batteries": "yes",
        "recycling:cans": "yes",
        "recycling:clothes": "yes",
        "recycling:glass": "yes",
        "recycling:paper": "yes",
        "recycling:scrap_metal": "yes",
        "recycling_type": "centre"
      }
    },
    {
      "id": "osm-0053",
      "name": "Junk Shop",
      "lat": 14.9224116,
      "lng": 120.2225791,
      "area_sqm": null,
      "type": "Recycling Center",
      "confidence": null,
      "detected_date": null,
      "source": "OpenStreetMap",
      "osm_id": 3011846859,
      "osm_type": "node",
      "tags": {
        "amenity": "recycling",
        "name": "Junk Shop"
      }
    },
    {
      "id": "osm-0054",
      "name": "Victor Junk Shop",
      "lat": 10.6213996,
      "lng": 122.1784871,
      "area_sqm": null,
      "type": "Recycling Center",
      "confidence": null,
      "detected_date": null,
      "source": "OpenStreetMap",
      "osm_id": 3044973094,
      "osm_type": "node",
      "tags": {
        "addr:city": "Miag-ao",
        "addr:street": "Iloilo-Antique Road",
        "amenity": "recycling",
        "name": "Victor Junk Shop",
        "recycling:cans": "yes",
        "recycling:glass": "yes",
        "recycling:plastic": "yes",
        "recycling_type": "centre"
      }
    },
    {
      "id": "osm-0055",
      "name": "Callo's Junkshop",
      "lat": 14.5857494,
      "lng": 121.0187904,
      "area_sqm": null,
      "type": "Recycling Center",
      "confidence": null,
      "detected_date": null,
      "source": "OpenStreetMap",
      "osm_id": 3077651785,
      "osm_type": "node",
      "tags": {
        "addr:street": "New Panaderos Street",
        "amenity": "recycling",
        "description": "junkshop",
        "name": "Callo's Junkshop",
        "recycling_type": "centre"
      }
    },
    {
      "id": "osm-0056",
      "name": "Nick Junkshop",
      "lat": 14.58582,
      "lng": 121.0188622,
      "area_sqm": null,
      "type": "Recycling Center",
      "confidence": null,
      "detected_date": null,
      "source": "OpenStreetMap",
      "osm_id": 3077658243,
      "osm_type": "node",
      "tags": {
        "addr:street": "New Panaderos Street",
        "amenity": "recycling",
        "name": "Nick Junkshop",
        "recycling_type": "centre"
      }
    },
    {
      "id": "osm-0057",
      "name": "Junk Shop",
      "lat": 14.8709456,
      "lng": 120.2527416,
      "area_sqm": null,
      "type": "Recycling Center",
      "confidence": null,
      "detected_date": null,
      "source": "OpenStreetMap",
      "osm_id": 3144737788,
      "osm_type": "node",
      "tags": {
        "amenity": "recycling",
        "name": "Junk Shop"
      }
    },
    {
      "id": "osm-0058",
      "name": "Junk Shop",
      "lat": 14.871221,
      "lng": 120.252173,
      "area_sqm": null,
      "type": "Recycling Center",
      "confidence": null,
      "detected_date": null,
      "source": "OpenStreetMap",
      "osm_id": 3144737789,
      "osm_type": "node",
      "tags": {
        "amenity": "recycling",
        "name": "Junk Shop"
      }
    },
    {
      "id": "osm-0059",
      "name": "Santos Junk Shop",
      "lat": 15.2227402,
      "lng": 120.6619617,
      "area_sqm": null,
      "type": "Recycling Center",
      "confidence": null,
      "detected_date": null,
      "source": "OpenStreetMap",
      "osm_id": 3209973755,
      "osm_type": "node",
      "tags": {
        "amenity": "recycling",
        "name": "Santos Junk Shop",
        "recycling:batteries": "no",
        "recycling:books": "no",
        "recycling:cans": "yes",
        "recycling:cardboard": "yes",
        "recycling:cartons": "yes",
        "recycling:clothes": "no",
        "recycling:electrical_appliances": "yes",
        "recycling:glass": "no",
        "recycling:glass_bottles": "yes",
        "recycling:plastic": "yes",
        "recycling:plastic_bottles": "yes",
        "recycling:plastic_packaging": "yes",
        "recycling:scrap_metal": "yes",
        "recycling:small_appliances": "yes",
        "recycling:waste": "no",
        "recycling:wood": "no",
        "recycling_type": "centre",
        "source": "Local knowledge"
      }
    },
    {
      "id": "osm-0060",
      "name": "MRF Material Recovery Facilities",
      "lat": 14.6355601,
      "lng": 121.0735155,
      "area_sqm": null,
      "type": "Recycling Center",
      "confidence": null,
      "detected_date": null,
      "source": "OpenStreetMap",
      "osm_id": 3227970115,
      "osm_type": "node",
      "tags": {
        "amenity": "recycling",
        "name": "MRF Material Recovery Facilities",
        "recycling_type": "container"
      }
    },
    {
      "id": "osm-0061",
      "name": "Recycling Center (OSM 3228398593)",
      "lat": 14.6395234,
      "lng": 121.080753,
      "area_sqm": null,
      "type": "Recycling Center",
      "confidence": null,
      "detected_date": null,
      "source": "OpenStreetMap",
      "osm_id": 3228398593,
      "osm_type": "node",
      "tags": {
        "amenity": "recycling",
        "description": "mrf",
        "note": "Biodegradable, non biodegradable, e waste",
        "recycling:waste": "yes",
        "recycling_type": "container"
      }
    },
    {
      "id": "osm-0062",
      "name": "biodegradable, non biodegradable, e waste",
      "lat": 14.6391133,
      "lng": 121.0801612,
      "area_sqm": null,
      "type": "Recycling Center",
      "confidence": null,
      "detected_date": null,
      "source": "OpenStreetMap",
      "osm_id": 3228398594,
      "osm_type": "node",
      "tags": {
        "amenity": "recycling",
        "description": "mrf",
        "name": "biodegradable, non biodegradable, e waste",
        "recycling:waste": "yes",
        "recycling_type": "container"
      }
    },
    {
      "id": "osm-0063",
      "name": "Biodegradable, Nonbiodegradable, E waste",
      "lat": 14.6387949,
      "lng": 121.0802416,
      "area_sqm": null,
      "type": "Recycling Center",
      "confidence": null,
      "detected_date": null,
      "source": "OpenStreetMap",
      "osm_id": 3228398595,
      "osm_type": "node",
      "tags": {
        "amenity": "recycling",
        "description": "mrf",
        "name": "Biodegradable, Nonbiodegradable, E waste",
        "recycling_type": "centre"
      }
    },
    {
      "id": "osm-0064",
      "name": "Recycling Center (OSM 3229331968)",
      "lat": 14.634885,
      "lng": 121.0754502,
      "area_sqm": null,
      "type": "Recycling Center",
      "confidence": null,
      "detected_date": null,
      "source": "OpenStreetMap",
      "osm_id": 3229331968,
      "osm_type": "node",
      "tags": {
        "amenity": "recycling",
        "recycling:waste": "yes",
        "recycling_type": "container"
      }
    },
    {
      "id": "osm-0065",
      "name": "Recycling Center (OSM 3229334138)",
      "lat": 14.634715,
      "lng": 121.0760023,
      "area_sqm": null,
      "type": "Recycling Center",
      "confidence": null,
      "detected_date": null,
      "source": "OpenStreetMap",
      "osm_id": 3229334138,
      "osm_type": "node",
      "tags": {
        "amenity": "recycling",
        "recycling:waste": "yes",
        "recycling_type": "container"
      }
    },
    {
      "id": "osm-0066",
      "name": "Recycling Center (OSM 3229337075)",
      "lat": 14.6345956,
      "lng": 121.0751091,
      "area_sqm": null,
      "type": "Recycling Center",
      "confidence": null,
      "detected_date": null,
      "source": "OpenStreetMap",
      "osm_id": 3229337075,
      "osm_type": "node",
      "tags": {
        "amenity": "recycling",
        "recycling:waste": "yes",
        "recycling_type": "container"
      }
    },
    {
      "id": "osm-0067",
      "name": "Recycling Center (OSM 3229352956)",
      "lat": 14.637495,
      "lng": 121.0765436,
      "area_sqm": null,
      "type": "Recycling Center",
      "confidence": null,
      "detected_date": null,
      "source": "OpenStreetMap",
      "osm_id": 3229352956,
      "osm_type": "node",
      "tags": {
        "amenity": "recycling",
        "recycling:waste": "yes",
        "recycling_type": "container"
      }
    },
    {
      "id": "osm-0068",
      "name": "Recycling Center (OSM 3229357231)",
      "lat": 14.6377818,
      "lng": 121.076686,
      "area_sqm": null,
      "type": "Recycling Center",
      "confidence": null,
      "detected_date": null,
      "source": "OpenStreetMap",
      "osm_id": 3229357231,
      "osm_type": "node",
      "tags": {
        "amenity": "recycling",
        "recycling_type": "centre"
      }
    },
    {
      "id": "osm-0069",
      "name": "Nikko JunkShop",
      "lat": 14.8821142,
      "lng": 120.2362744,
      "area_sqm": null,
      "type": "Recycling Center",
      "confidence": null,
      "detected_date": null,
      "source": "OpenStreetMap",
      "osm_id": 3269990293,
      "osm_type": "node",
      "tags": {
        "amenity": "recycling",
        "name": "Nikko JunkShop"
      }
    },
    {
      "id": "osm-0070",
      "name": "Cotabato City Water District Pumping Station",
      "lat": 7.1509178,
      "lng": 124.2023577,
      "area_sqm": null,
      "type": "Wastewater Plant",
      "confidence": null,
      "detected_date": null,
      "source": "OpenStreetMap",
      "osm_id": 3428106444,
      "osm_type": "node",
      "tags": {
        "man_made": "wastewater_plant",
        "name": "Cotabato City Water District Pumping Station"
      }
    },
    {
      "id": "osm-0071",
      "name": "Valenzuela City 3S",
      "lat": 14.6896773,
      "lng": 120.9785062,
      "area_sqm": null,
      "type": "Recycling Center",
      "confidence": null,
      "detected_date": null,
      "source": "OpenStreetMap",
      "osm_id": 3503064878,
      "osm_type": "node",
      "tags": {
        "amenity": "recycling",
        "name": "Valenzuela City 3S",
        "recycling_type": "centre"
      }
    },
    {
      "id": "osm-0072",
      "name": "Waste Disposal (OSM 3537252064)",
      "lat": 14.5415363,
      "lng": 121.1055483,
      "area_sqm": null,
      "type": "Waste Disposal",
      "confidence": null,
      "detected_date": null,
      "source": "OpenStreetMap",
      "osm_id": 3537252064,
      "osm_type": "node",
      "tags": {
        "amenity": "waste_disposal"
      }
    },
    {
      "id": "osm-0073",
      "name": "Tony's Junkshop",
      "lat": 14.6494098,
      "lng": 121.1030133,
      "area_sqm": null,
      "type": "Recycling Center",
      "confidence": null,
      "detected_date": null,
      "source": "OpenStreetMap",
      "osm_id": 3583190232,
      "osm_type": "node",
      "tags": {
        "addr:city": "Marikina",
        "addr:street": "Eraño G. Manalo Street",
        "amenity": "recycling",
        "description": "junkshop",
        "name": "Tony's Junkshop",
        "recycling:clothes": "no",
        "survey:date": "2015-06-09"
      }
    },
    {
      "id": "osm-0074",
      "name": "Alaiza Mark Trading",
      "lat": 14.5893428,
      "lng": 121.0374919,
      "area_sqm": null,
      "type": "Recycling Center",
      "confidence": null,
      "detected_date": null,
      "source": "OpenStreetMap",
      "osm_id": 3674552529,
      "osm_type": "node",
      "tags": {
        "addr:street": "Shaw Boulevard",
        "amenity": "recycling",
        "name": "Alaiza Mark Trading",
        "opening_hours": "Mo-Su",
        "recycling_type": "centre"
      }
    },
    {
      "id": "osm-0075",
      "name": "Vermi Composting",
      "lat": 9.3112011,
      "lng": 123.2598383,
      "area_sqm": null,
      "type": "Recycling Center",
      "confidence": null,
      "detected_date": null,
      "source": "OpenStreetMap",
      "osm_id": 3707448313,
      "osm_type": "node",
      "tags": {
        "amenity": "recycling",
        "name": "Vermi Composting",
        "note": "garbage managment",
        "recycling:green_waste": "yes",
        "recycling_type": "centre"
      }
    },
    {
      "id": "osm-0076",
      "name": "Gabie's Metal Trading",
      "lat": 9.3167517,
      "lng": 123.3120033,
      "area_sqm": null,
      "type": "Recycling Center",
      "confidence": null,
      "detected_date": null,
      "source": "OpenStreetMap",
      "osm_id": 3707450556,
      "osm_type": "node",
      "tags": {
        "amenity": "recycling",
        "name": "Gabie's Metal Trading",
        "recycling_type": "centre"
      }
    },
    {
      "id": "osm-0077",
      "name": "Lo-oc Material Recovery Facility",
      "lat": 9.3166291,
      "lng": 123.3121593,
      "area_sqm": null,
      "type": "Recycling Center",
      "confidence": null,
      "detected_date": null,
      "source": "OpenStreetMap",
      "osm_id": 3710072314,
      "osm_type": "node",
      "tags": {
        "amenity": "recycling",
        "name": "Lo-oc Material Recovery Facility",
        "operator": "Lo-oc Barangay LGU",
        "operator:type": "government",
        "recycling_type": "centre"
      }
    },
    {
      "id": "osm-0078",
      "name": "Mara Scrap Buyer",
      "lat": 9.3167609,
      "lng": 123.3118861,
      "area_sqm": null,
      "type": "Recycling Center",
      "confidence": null,
      "detected_date": null,
      "source": "OpenStreetMap",
      "osm_id": 3710072315,
      "osm_type": "node",
      "tags": {
        "amenity": "recycling",
        "name": "Mara Scrap Buyer",
        "recycling_type": "centre"
      }
    },
    {
      "id": "osm-0079",
      "name": "JunkShop",
      "lat": 14.853367,
      "lng": 120.2462883,
      "area_sqm": null,
      "type": "Recycling Center",
      "confidence": null,
      "detected_date": null,
      "source": "OpenStreetMap",
      "osm_id": 3784103625,
      "osm_type": "node",
      "tags": {
        "amenity": "recycling",
        "name": "JunkShop"
      }
    },
    {
      "id": "osm-0080",
      "name": "Gilbert Junkshop",
      "lat": 14.1009759,
      "lng": 120.9275285,
      "area_sqm": null,
      "type": "Recycling Center",
      "confidence": null,
      "detected_date": null,
      "source": "OpenStreetMap",
      "osm_id": 3791226845,
      "osm_type": "node",
      "tags": {
        "amenity": "recycling",
        "name": "Gilbert Junkshop"
      }
    },
    {
      "id": "osm-0081",
      "name": "Recycling Center (OSM 3924971707)",
      "lat": 13.146971,
      "lng": 123.7479063,
      "area_sqm": null,
      "type": "Recycling Center",
      "confidence": null,
      "detected_date": null,
      "source": "OpenStreetMap",
      "osm_id": 3924971707,
      "osm_type": "node",
      "tags": {
        "addr:street": "Barriada Road",
        "amenity": "recycling",
        "fixme": "name",
        "recycling_type": "centre"
      }
    },
    {
      "id": "osm-0082",
      "name": "Japan Surplus Shop",
      "lat": 8.0231031,
      "lng": 123.8230506,
      "area_sqm": null,
      "type": "Recycling Center",
      "confidence": null,
      "detected_date": null,
      "source": "OpenStreetMap",
      "osm_id": 4134691089,
      "osm_type": "node",
      "tags": {
        "amenity": "recycling",
        "name": "Japan Surplus Shop"
      }
    },
    {
      "id": "osm-0083",
      "name": "Waste Disposal (OSM 4157374790)",
      "lat": 14.5887065,
      "lng": 121.0565159,
      "area_sqm": null,
      "type": "Waste Disposal",
      "confidence": null,
      "detected_date": null,
      "source": "OpenStreetMap",
      "osm_id": 4157374790,
      "osm_type": "node",
      "tags": {
        "amenity": "waste_disposal"
      }
    },
    {
      "id": "osm-0084",
      "name": "Waste Disposal (OSM 4157374792)",
      "lat": 14.5889919,
      "lng": 121.0565742,
      "area_sqm": null,
      "type": "Waste Disposal",
      "confidence": null,
      "detected_date": null,
      "source": "OpenStreetMap",
      "osm_id": 4157374792,
      "osm_type": "node",
      "tags": {
        "amenity": "waste_disposal"
      }
    },
    {
      "id": "osm-0085",
      "name": "Mini Ricemill",
      "lat": 8.9756259,
      "lng": 125.541755,
      "area_sqm": null,
      "type": "Recycling Center",
      "confidence": null,
      "detected_date": null,
      "source": "OpenStreetMap",
      "osm_id": 4172646690,
      "osm_type": "node",
      "tags": {
        "amenity": "recycling",
        "name": "Mini Ricemill"
      }
    },
    {
      "id": "osm-0086",
      "name": "Mini Ricemill",
      "lat": 8.9749476,
      "lng": 125.5416488,
      "area_sqm": null,
      "type": "Recycling Center",
      "confidence": null,
      "detected_date": null,
      "source": "OpenStreetMap",
      "osm_id": 4172646789,
      "osm_type": "node",
      "tags": {
        "amenity": "recycling",
        "name": "Mini Ricemill"
      }
    },
    {
      "id": "osm-0087",
      "name": "Frilco ",
      "lat": 14.2596622,
      "lng": 121.1276033,
      "area_sqm": null,
      "type": "Recycling Center",
      "confidence": null,
      "detected_date": null,
      "source": "OpenStreetMap",
      "osm_id": 4231184289,
      "osm_type": "node",
      "tags": {
        "amenity": "recycling",
        "name": "Frilco "
      }
    },
    {
      "id": "osm-0088",
      "name": "Junkshop",
      "lat": 15.0612469,
      "lng": 120.7191875,
      "area_sqm": null,
      "type": "Recycling Center",
      "confidence": null,
      "detected_date": null,
      "source": "OpenStreetMap",
      "osm_id": 4233839702,
      "osm_type": "node",
      "tags": {
        "amenity": "recycling",
        "name": "Junkshop",
        "recycling_type": "centre"
      }
    },
    {
      "id": "osm-0089",
      "name": "Wastewater Plant (OSM 4313904235)",
      "lat": 14.0901336,
      "lng": 121.2227956,
      "area_sqm": null,
      "type": "Wastewater Plant",
      "confidence": null,
      "detected_date": null,
      "source": "OpenStreetMap",
      "osm_id": 4313904235,
      "osm_type": "node",
      "tags": {
        "man_made": "wastewater_plant"
      }
    },
    {
      "id": "osm-0090",
      "name": "Wastewater Plant (OSM 4313904236)",
      "lat": 14.0933543,
      "lng": 121.2175443,
      "area_sqm": null,
      "type": "Wastewater Plant",
      "confidence": null,
      "detected_date": null,
      "source": "OpenStreetMap",
      "osm_id": 4313904236,
      "osm_type": "node",
      "tags": {
        "man_made": "wastewater_plant"
      }
    },
    {
      "id": "osm-0091",
      "name": "Recycling Center (OSM 4327267174)",
      "lat": 16.0295787,
      "lng": 120.3287084,
      "area_sqm": null,
      "type": "Recycling Center",
      "confidence": null,
      "detected_date": null,
      "source": "OpenStreetMap",
      "osm_id": 4327267174,
      "osm_type": "node",
      "tags": {
        "amenity": "recycling"
      }
    },
    {
      "id": "osm-0092",
      "name": "Waste Disposal (OSM 4381454191)",
      "lat": 13.8814421,
      "lng": 122.2613573,
      "area_sqm": null,
      "type": "Waste Disposal",
      "confidence": null,
      "detected_date": null,
      "source": "OpenStreetMap",
      "osm_id": 4381454191,
      "osm_type": "node",
      "tags": {
        "amenity": "waste_disposal"
      }
    },
    {
      "id": "osm-0093",
      "name": "Halapitan Dump Site",
      "lat": 7.9370034,
      "lng": 125.3334664,
      "area_sqm": null,
      "type": "Recycling Center",
      "confidence": null,
      "detected_date": null,
      "source": "OpenStreetMap",
      "osm_id": 4382093493,
      "osm_type": "node",
      "tags": {
        "amenity": "recycling",
        "name": "Halapitan Dump Site"
      }
    },
    {
      "id": "osm-0094",
      "name": "Junkshop",
      "lat": 13.2246353,
      "lng": 120.5931005,
      "area_sqm": null,
      "type": "Recycling Center",
      "confidence": null,
      "detected_date": null,
      "source": "OpenStreetMap",
      "osm_id": 4437055494,
      "osm_type": "node",
      "tags": {
        "amenity": "recycling",
        "name": "Junkshop",
        "recycling_type": "centre"
      }
    },
    {
      "id": "osm-0095",
      "name": "Henz B Junkshop",
      "lat": 13.2238757,
      "lng": 120.5925089,
      "area_sqm": null,
      "type": "Recycling Center",
      "confidence": null,
      "detected_date": null,
      "source": "OpenStreetMap",
      "osm_id": 4437954870,
      "osm_type": "node",
      "tags": {
        "amenity": "recycling",
        "name": "Henz B Junkshop"
      }
    },
    {
      "id": "osm-0096",
      "name": "Waste Disposal (OSM 4470023189)",
      "lat": 14.5633719,
      "lng": 121.0938324,
      "area_sqm": null,
      "type": "Waste Disposal",
      "confidence": null,
      "detected_date": null,
      "source": "OpenStreetMap",
      "osm_id": 4470023189,
      "osm_type": "node",
      "tags": {
        "amenity": "waste_disposal",
        "operator": "Ipm Construction and Development Corp."
      }
    },
    {
      "id": "osm-0097",
      "name": "Waste Disposal (OSM 4550118192)",
      "lat": 11.4712874,
      "lng": 123.09986,
      "area_sqm": null,
      "type": "Waste Disposal",
      "confidence": null,
      "detected_date": null,
      "source": "OpenStreetMap",
      "osm_id": 4550118192,
      "osm_type": "node",
      "tags": {
        "amenity": "waste_disposal",
        "operator": "balasan"
      }
    },
    {
      "id": "osm-0098",
      "name": "Guapo Junkshop",
      "lat": 14.617111,
      "lng": 121.0639305,
      "area_sqm": null,
      "type": "Recycling Center",
      "confidence": null,
      "detected_date": null,
      "source": "OpenStreetMap",
      "osm_id": 4554029007,
      "osm_type": "node",
      "tags": {
        "addr2:street": "Luis Bayanin Lane",
        "addr:street": "19th Avenue",
        "amenity": "recycling",
        "description": "junkshop",
        "name": "Guapo Junkshop",
        "recycling_type": "centre"
      }
    },
    {
      "id": "osm-0099",
      "name": "Waste Disposal (OSM 4641229691)",
      "lat": 8.1381161,
      "lng": 123.8113184,
      "area_sqm": null,
      "type": "Waste Disposal",
      "confidence": null,
      "detected_date": null,
      "source": "OpenStreetMap",
      "osm_id": 4641229691,
      "osm_type": "node",
      "tags": {
        "amenity": "waste_disposal",
        "operator": "Old Dump Site"
      }
    },
    {
      "id": "osm-0100",
      "name": "Tripple j",
      "lat": 9.6416069,
      "lng": 123.8563176,
      "area_sqm": null,
      "type": "Recycling Center",
      "confidence": null,
      "detected_date": null,
      "source": "OpenStreetMap",
      "osm_id": 4643537489,
      "osm_type": "node",
      "tags": {
        "amenity": "recycling",
        "name": "Tripple j",
        "name:en": "Tripple j"
      }
    },
    {
      "id": "osm-0101",
      "name": "MRWD Water Treatment Plant and Billing Office",
      "lat": 11.4676985,
      "lng": 122.7747601,
      "area_sqm": null,
      "type": "Wastewater Plant",
      "confidence": null,
      "detected_date": null,
      "source": "OpenStreetMap",
      "osm_id": 4646434968,
      "osm_type": "node",
      "tags": {
        "addr:place": "Tabuc Norte",
        "man_made": "wastewater_plant",
        "name": "MRWD Water Treatment Plant and Billing Office",
        "operator": "Metro Roxas Water District"
      }
    },
    {
      "id": "osm-0102",
      "name": "Irisan Dumpsite Workers Cooperative",
      "lat": 16.4246527,
      "lng": 120.5502433,
      "area_sqm": null,
      "type": "Waste Disposal",
      "confidence": null,
      "detected_date": null,
      "source": "OpenStreetMap",
      "osm_id": 4688332570,
      "osm_type": "node",
      "tags": {
        "amenity": "waste_disposal",
        "name": "Irisan Dumpsite Workers Cooperative"
      }
    },
    {
      "id": "osm-0103",
      "name": "CCM Container Construction & Modification",
      "lat": 10.3505131,
      "lng": 123.944162,
      "area_sqm": null,
      "type": "Recycling Center",
      "confidence": null,
      "detected_date": null,
      "source": "OpenStreetMap",
      "osm_id": 4760873421,
      "osm_type": "node",
      "tags": {
        "amenity": "recycling",
        "name": "CCM Container Construction & Modification",
        "name:en": "CCM Container Construction & Modification"
      }
    },
    {
      "id": "osm-0104",
      "name": "Clark Waste Management",
      "lat": 15.1772901,
      "lng": 120.5269804,
      "area_sqm": null,
      "type": "Recycling Center",
      "confidence": null,
      "detected_date": null,
      "source": "OpenStreetMap",
      "osm_id": 4784610022,
      "osm_type": "node",
      "tags": {
        "amenity": "recycling",
        "name": "Clark Waste Management",
        "name:en": "Clark Waste management"
      }
    },
    {
      "id": "osm-0105",
      "name": "Joseph junkshop",
      "lat": 14.6338555,
      "lng": 120.9657455,
      "area_sqm": null,
      "type": "Recycling Center",
      "confidence": null,
      "detected_date": null,
      "source": "OpenStreetMap",
      "osm_id": 4796397924,
      "osm_type": "node",
      "tags": {
        "amenity": "recycling",
        "description": "junkshop",
        "name": "Joseph junkshop",
        "name:en": "Joseph Junkshop"
      }
    },
    {
      "id": "osm-0106",
      "name": "Carpel Cainta",
      "lat": 14.5859073,
      "lng": 121.1193305,
      "area_sqm": null,
      "type": "Recycling Center",
      "confidence": null,
      "detected_date": null,
      "source": "OpenStreetMap",
      "osm_id": 4797466621,
      "osm_type": "node",
      "tags": {
        "amenity": "recycling",
        "name": "Carpel Cainta"
      }
    },
    {
      "id": "osm-0107",
      "name": "Junk Shop",
      "lat": 14.8676825,
      "lng": 120.2582046,
      "area_sqm": null,
      "type": "Recycling Center",
      "confidence": null,
      "detected_date": null,
      "source": "OpenStreetMap",
      "osm_id": 4879539315,
      "osm_type": "node",
      "tags": {
        "amenity": "recycling",
        "name": "Junk Shop",
        "recycling_type": "container"
      }
    },
    {
      "id": "osm-0108",
      "name": "Carpel Novaliches",
      "lat": 14.7194662,
      "lng": 121.0268375,
      "area_sqm": null,
      "type": "Recycling Center",
      "confidence": null,
      "detected_date": null,
      "source": "OpenStreetMap",
      "osm_id": 4906196522,
      "osm_type": "node",
      "tags": {
        "amenity": "recycling",
        "name": "Carpel Novaliches",
        "name:en": "Carpel Novaliches",
        "recycling_type": "centre"
      }
    },
    {
      "id": "osm-0109",
      "name": "Waste Disposal (OSM 4930907831)",
      "lat": 16.4490045,
      "lng": 120.576092,
      "area_sqm": null,
      "type": "Waste Disposal",
      "confidence": null,
      "detected_date": null,
      "source": "OpenStreetMap",
      "osm_id": 4930907831,
      "osm_type": "node",
      "tags": {
        "amenity": "waste_disposal",
        "collection_times": "Mo-Su 06:00-08:00"
      }
    },
    {
      "id": "osm-0110",
      "name": "Waste Disposal (OSM 4930907832)",
      "lat": 16.4478983,
      "lng": 120.5762583,
      "area_sqm": null,
      "type": "Waste Disposal",
      "confidence": null,
      "detected_date": null,
      "source": "OpenStreetMap",
      "osm_id": 4930907832,
      "osm_type": "node",
      "tags": {
        "amenity": "waste_disposal",
        "collection_times": "Mo-Su 06:00-08:00"
      }
    },
    {
      "id": "osm-0111",
      "name": "Waste Disposal (OSM 4942256949)",
      "lat": 16.4473144,
      "lng": 120.5908873,
      "area_sqm": null,
      "type": "Waste Disposal",
      "confidence": null,
      "detected_date": null,
      "source": "OpenStreetMap",
      "osm_id": 4942256949,
      "osm_type": "node",
      "tags": {
        "amenity": "waste_disposal"
      }
    },
    {
      "id": "osm-0112",
      "name": "Win Scrap Shop",
      "lat": 14.5748915,
      "lng": 121.1145604,
      "area_sqm": null,
      "type": "Recycling Center",
      "confidence": null,
      "detected_date": null,
      "source": "OpenStreetMap",
      "osm_id": 4952642421,
      "osm_type": "node",
      "tags": {
        "addr:housenumber": "391",
        "addr:postcode": "1900",
        "addr:street": "Amang Rodriguez Avenue",
        "amenity": "recycling",
        "name": "Win Scrap Shop",
        "name:en": "Win Scrap Shop"
      }
    },
    {
      "id": "osm-0113",
      "name": "garbage Disposal site",
      "lat": 10.2384058,
      "lng": 123.8423869,
      "area_sqm": null,
      "type": "Waste Disposal",
      "confidence": null,
      "detected_date": null,
      "source": "OpenStreetMap",
      "osm_id": 4983148868,
      "osm_type": "node",
      "tags": {
        "amenity": "waste_disposal",
        "name": "garbage Disposal site"
      }
    },
    {
      "id": "osm-0114",
      "name": "Temporary MRF (Material Recovery Facility)",
      "lat": 12.1414835,
      "lng": 124.8898493,
      "area_sqm": null,
      "type": "Recycling Center",
      "confidence": null,
      "detected_date": null,
      "source": "OpenStreetMap",
      "osm_id": 5066134950,
      "osm_type": "node",
      "tags": {
        "amenity": "recycling",
        "name": "Temporary MRF (Material Recovery Facility)",
        "recycling_type": "centre"
      }
    },
    {
      "id": "osm-0115",
      "name": "Recycling Center (OSM 5116703578)",
      "lat": 14.5973627,
      "lng": 121.163761,
      "area_sqm": null,
      "type": "Recycling Center",
      "confidence": null,
      "detected_date": null,
      "source": "OpenStreetMap",
      "osm_id": 5116703578,
      "osm_type": "node",
      "tags": {
        "amenity": "recycling",
        "recycling_type": "container"
      }
    },
    {
      "id": "osm-0116",
      "name": "Efmhar's Junk Shop",
      "lat": 14.1782243,
      "lng": 121.2889215,
      "area_sqm": null,
      "type": "Recycling Center",
      "confidence": null,
      "detected_date": null,
      "source": "OpenStreetMap",
      "osm_id": 5158039821,
      "osm_type": "node",
      "tags": {
        "amenity": "recycling",
        "name": "Efmhar's Junk Shop",
        "operator": "Efmhar Jake Esguerra"
      }
    },
    {
      "id": "osm-0117",
      "name": "Loraine Junk Shop",
      "lat": 14.5830153,
      "lng": 121.1150859,
      "area_sqm": null,
      "type": "Recycling Center",
      "confidence": null,
      "detected_date": null,
      "source": "OpenStreetMap",
      "osm_id": 5162477422,
      "osm_type": "node",
      "tags": {
        "amenity": "recycling",
        "name": "Loraine Junk Shop"
      }
    },
    {
      "id": "osm-0118",
      "name": "Kauswagan MRF",
      "lat": 8.4953613,
      "lng": 124.6371924,
      "area_sqm": null,
      "type": "Recycling Center",
      "confidence": null,
      "detected_date": null,
      "source": "OpenStreetMap",
      "osm_id": 5175681779,
      "osm_type": "node",
      "tags": {
        "addr:city": "Cagayan de Oro City",
        "addr:postcode": "9000",
        "addr:province": "Misamis Oriental",
        "amenity": "recycling",
        "name": "Kauswagan MRF",
        "official_name": "Kauswagan Materials Recovery Facility",
        "recycling_type": "centre",
        "short_name": "MRF"
      }
    },
    {
      "id": "osm-0119",
      "name": "Recycling Center (OSM 5255264655)",
      "lat": 14.3019372,
      "lng": 120.9582653,
      "area_sqm": null,
      "type": "Recycling Center",
      "confidence": null,
      "detected_date": null,
      "source": "OpenStreetMap",
      "osm_id": 5255264655,
      "osm_type": "node",
      "tags": {
        "addr:city": "Dasmariñas",
        "addr:postcode": "4114",
        "amenity": "recycling",
        "recycling:cans": "yes",
        "recycling:newspaper": "yes",
        "recycling:paper": "yes",
        "recycling:plastic_bottles": "yes",
        "recycling_type": "centre",
        "service_times": "Fr[1] 07:00-14:00",
        "smoking": "no"
      }
    },
    {
      "id": "osm-0120",
      "name": "Recycling Center (OSM 5259613227)",
      "lat": 10.6953162,
      "lng": 122.5482381,
      "area_sqm": null,
      "type": "Recycling Center",
      "confidence": null,
      "detected_date": null,
      "source": "OpenStreetMap",
      "osm_id": 5259613227,
      "osm_type": "node",
      "tags": {
        "amenity": "recycling",
        "description": "Junk Yard",
        "recycling_type": "centre"
      }
    },
    {
      "id": "osm-0121",
      "name": "L.G. Global Express Corporation",
      "lat": 14.7807458,
      "lng": 120.9875249,
      "area_sqm": null,
      "type": "Recycling Center",
      "confidence": null,
      "detected_date": null,
      "source": "OpenStreetMap",
      "osm_id": 5267767921,
      "osm_type": "node",
      "tags": {
        "amenity": "recycling",
        "name": "L.G. Global Express Corporation"
      }
    },
    {
      "id": "osm-0122",
      "name": "William Tan Junk Shop",
      "lat": 10.2690264,
      "lng": 123.8383072,
      "area_sqm": null,
      "type": "Recycling Center",
      "confidence": null,
      "detected_date": null,
      "source": "OpenStreetMap",
      "osm_id": 5324659921,
      "osm_type": "node",
      "tags": {
        "amenity": "recycling",
        "name": "William Tan Junk Shop",
        "operator": "William Tan"
      }
    },
    {
      "id": "osm-0123",
      "name": "Baring's Junkshop",
      "lat": 10.4802867,
      "lng": 123.4133039,
      "area_sqm": null,
      "type": "Recycling Center",
      "confidence": null,
      "detected_date": null,
      "source": "OpenStreetMap",
      "osm_id": 5366975221,
      "osm_type": "node",
      "tags": {
        "amenity": "recycling",
        "name": "Baring's Junkshop"
      }
    },
    {
      "id": "osm-0124",
      "name": "Anini-y Central School Materials Recovery Facility",
      "lat": 10.4313527,
      "lng": 121.9271562,
      "area_sqm": null,
      "type": "Recycling Center",
      "confidence": null,
      "detected_date": null,
      "source": "OpenStreetMap",
      "osm_id": 5439005259,
      "osm_type": "node",
      "tags": {
        "amenity": "recycling",
        "name": "Anini-y Central School Materials Recovery Facility",
        "recycling_type": "centre"
      }
    },
    {
      "id": "osm-0125",
      "name": "Waste Disposal (OSM 5520535903)",
      "lat": 14.295179,
      "lng": 120.9571868,
      "area_sqm": null,
      "type": "Waste Disposal",
      "confidence": null,
      "detected_date": null,
      "source": "OpenStreetMap",
      "osm_id": 5520535903,
      "osm_type": "node",
      "tags": {
        "amenity": "waste_disposal"
      }
    },
    {
      "id": "osm-0126",
      "name": "Waste Disposal (OSM 5520535904)",
      "lat": 14.2948618,
      "lng": 120.9573301,
      "area_sqm": null,
      "type": "Waste Disposal",
      "confidence": null,
      "detected_date": null,
      "source": "OpenStreetMap",
      "osm_id": 5520535904,
      "osm_type": "node",
      "tags": {
        "amenity": "waste_disposal"
      }
    },
    {
      "id": "osm-0127",
      "name": "Waste Disposal (OSM 5535204021)",
      "lat": 15.3722679,
      "lng": 120.5905465,
      "area_sqm": null,
      "type": "Waste Disposal",
      "confidence": null,
      "detected_date": null,
      "source": "OpenStreetMap",
      "osm_id": 5535204021,
      "osm_type": "node",
      "tags": {
        "amenity": "waste_disposal",
        "operator": "Capas 888 Coliseum"
      }
    },
    {
      "id": "osm-0128",
      "name": "Waste Disposal (OSM 5631865303)",
      "lat": 7.071446,
      "lng": 125.6217206,
      "area_sqm": null,
      "type": "Waste Disposal",
      "confidence": null,
      "detected_date": null,
      "source": "OpenStreetMap",
      "osm_id": 5631865303,
      "osm_type": "node",
      "tags": {
        "amenity": "waste_disposal",
        "waste": "trash"
      }
    },
    {
      "id": "osm-0129",
      "name": "Material Recovery Facility",
      "lat": 13.8811899,
      "lng": 120.9100734,
      "area_sqm": null,
      "type": "Recycling Center",
      "confidence": null,
      "detected_date": null,
      "source": "OpenStreetMap",
      "osm_id": 5653584630,
      "osm_type": "node",
      "tags": {
        "amenity": "recycling",
        "name": "Material Recovery Facility",
        "recycling_type": "centre"
      }
    },
    {
      "id": "osm-0130",
      "name": "Material Recovery Facility",
      "lat": 13.8828681,
      "lng": 120.9078291,
      "area_sqm": null,
      "type": "Recycling Center",
      "confidence": null,
      "detected_date": null,
      "source": "OpenStreetMap",
      "osm_id": 5653584675,
      "osm_type": "node",
      "tags": {
        "amenity": "recycling",
        "name": "Material Recovery Facility",
        "recycling_type": "centre"
      }
    },
    {
      "id": "osm-0131",
      "name": "San Roque Material Reycling Facility",
      "lat": 14.5714967,
      "lng": 121.1138769,
      "area_sqm": null,
      "type": "Recycling Center",
      "confidence": null,
      "detected_date": null,
      "source": "OpenStreetMap",
      "osm_id": 5653923523,
      "osm_type": "node",
      "tags": {
        "addr:postcode": "1900",
        "addr:street": "4th Street",
        "amenity": "recycling",
        "name": "San Roque Material Reycling Facility",
        "recycling_type": "centre"
      }
    },
    {
      "id": "osm-0132",
      "name": "Recycling Center (OSM 5668059682)",
      "lat": 11.71674,
      "lng": 122.35581,
      "area_sqm": null,
      "type": "Recycling Center",
      "confidence": null,
      "detected_date": null,
      "source": "OpenStreetMap",
      "osm_id": 5668059682,
      "osm_type": "node",
      "tags": {
        "amenity": "recycling"
      }
    },
    {
      "id": "osm-0133",
      "name": "Recycling Center (OSM 5681388293)",
      "lat": 11.42132,
      "lng": 122.69881,
      "area_sqm": null,
      "type": "Recycling Center",
      "confidence": null,
      "detected_date": null,
      "source": "OpenStreetMap",
      "osm_id": 5681388293,
      "osm_type": "node",
      "tags": {
        "amenity": "recycling",
        "compost": "yes"
      }
    },
    {
      "id": "osm-0134",
      "name": "Dump Site",
      "lat": 11.4899206,
      "lng": 122.7314333,
      "area_sqm": null,
      "type": "Waste Disposal",
      "confidence": null,
      "detected_date": null,
      "source": "OpenStreetMap",
      "osm_id": 5688694814,
      "osm_type": "node",
      "tags": {
        "amenity": "waste_disposal",
        "name": "Dump Site"
      }
    },
    {
      "id": "osm-0135",
      "name": "Materials Recovery Facility",
      "lat": 16.2113135,
      "lng": 121.588211,
      "area_sqm": null,
      "type": "Recycling Center",
      "confidence": null,
      "detected_date": null,
      "source": "OpenStreetMap",
      "osm_id": 5740761469,
      "osm_type": "node",
      "tags": {
        "amenity": "recycling",
        "name": "Materials Recovery Facility",
        "recycling_type": "centre"
      }
    },
    {
      "id": "osm-0136",
      "name": "Waste Disposal (OSM 5741386724)",
      "lat": 14.6906977,
      "lng": 120.9699261,
      "area_sqm": null,
      "type": "Waste Disposal",
      "confidence": null,
      "detected_date": null,
      "source": "OpenStreetMap",
      "osm_id": 5741386724,
      "osm_type": "node",
      "tags": {
        "amenity": "waste_disposal"
      }
    },
    {
      "id": "osm-0137",
      "name": "Waste Disposal (OSM 5741386725)",
      "lat": 14.6906934,
      "lng": 120.9699597,
      "area_sqm": null,
      "type": "Waste Disposal",
      "confidence": null,
      "detected_date": null,
      "source": "OpenStreetMap",
      "osm_id": 5741386725,
      "osm_type": "node",
      "tags": {
        "amenity": "waste_disposal"
      }
    },
    {
      "id": "osm-0138",
      "name": "Scrap Yard (OSM 5742911684)",
      "lat": 14.7969087,
      "lng": 120.8744133,
      "area_sqm": null,
      "type": "Scrap Yard",
      "confidence": null,
      "detected_date": null,
      "source": "OpenStreetMap",
      "osm_id": 5742911684,
      "osm_type": "node",
      "tags": {
        "industrial": "scrap_yard",
        "landuse": "industrial"
      }
    },
    {
      "id": "osm-0139",
      "name": "Allan Tiro Enterprises",
      "lat": 10.2635293,
      "lng": 123.9618339,
      "area_sqm": null,
      "type": "Recycling Center",
      "confidence": null,
      "detected_date": null,
      "source": "OpenStreetMap",
      "osm_id": 5760026421,
      "osm_type": "node",
      "tags": {
        "amenity": "recycling",
        "name": "Allan Tiro Enterprises"
      }
    },
    {
      "id": "osm-0140",
      "name": "Materials Recovery Facility",
      "lat": 16.8075388,
      "lng": 121.1358519,
      "area_sqm": null,
      "type": "Recycling Center",
      "confidence": null,
      "detected_date": null,
      "source": "OpenStreetMap",
      "osm_id": 5783227097,
      "osm_type": "node",
      "tags": {
        "amenity": "recycling",
        "name": "Materials Recovery Facility",
        "recycling_type": "centre"
      }
    },
    {
      "id": "osm-0141",
      "name": "Materials Recovery Facility",
      "lat": 16.8541463,
      "lng": 121.1118186,
      "area_sqm": null,
      "type": "Recycling Center",
      "confidence": null,
      "detected_date": null,
      "source": "OpenStreetMap",
      "osm_id": 5783706785,
      "osm_type": "node",
      "tags": {
        "amenity": "recycling",
        "name": "Materials Recovery Facility",
        "recycling_type": "centre"
      }
    },
    {
      "id": "osm-0142",
      "name": "Faridh Junkshop",
      "lat": 8.2439033,
      "lng": 124.2446895,
      "area_sqm": null,
      "type": "Recycling Center",
      "confidence": null,
      "detected_date": null,
      "source": "OpenStreetMap",
      "osm_id": 5784400285,
      "osm_type": "node",
      "tags": {
        "amenity": "recycling",
        "name": "Faridh Junkshop",
        "recycling_type": "centre"
      }
    },
    {
      "id": "osm-0143",
      "name": "Idol Scrap Yard",
      "lat": 10.7747884,
      "lng": 122.3143123,
      "area_sqm": null,
      "type": "Recycling Center",
      "confidence": null,
      "detected_date": null,
      "source": "OpenStreetMap",
      "osm_id": 5872393661,
      "osm_type": "node",
      "tags": {
        "amenity": "recycling",
        "name": "Idol Scrap Yard",
        "recycling_type": "centre"
      }
    },
    {
      "id": "osm-0144",
      "name": "Materials Recovery Facility",
      "lat": 16.4123541,
      "lng": 120.5486941,
      "area_sqm": null,
      "type": "Recycling Center",
      "confidence": null,
      "detected_date": null,
      "source": "OpenStreetMap",
      "osm_id": 5928408463,
      "osm_type": "node",
      "tags": {
        "amenity": "recycling",
        "name": "Materials Recovery Facility",
        "recycling_type": "centre"
      }
    },
    {
      "id": "osm-0145",
      "name": "Materials Recovery Facility",
      "lat": 16.4830628,
      "lng": 120.5741354,
      "area_sqm": null,
      "type": "Recycling Center",
      "confidence": null,
      "detected_date": null,
      "source": "OpenStreetMap",
      "osm_id": 5928529808,
      "osm_type": "node",
      "tags": {
        "amenity": "recycling",
        "name": "Materials Recovery Facility",
        "recycling_type": "centre"
      }
    },
    {
      "id": "osm-0146",
      "name": "Recycling Center (OSM 5931489023)",
      "lat": 18.2570594,
      "lng": 121.9928405,
      "area_sqm": null,
      "type": "Recycling Center",
      "confidence": null,
      "detected_date": null,
      "source": "OpenStreetMap",
      "osm_id": 5931489023,
      "osm_type": "node",
      "tags": {
        "amenity": "recycling",
        "recycling_type": "centre"
      }
    },
    {
      "id": "osm-0147",
      "name": "Poswak Junk Shop",
      "lat": 16.625383,
      "lng": 120.3296094,
      "area_sqm": null,
      "type": "Scrap Yard",
      "confidence": null,
      "detected_date": null,
      "source": "OpenStreetMap",
      "osm_id": 6004298661,
      "osm_type": "node",
      "tags": {
        "industrial": "scrap_yard",
        "landuse": "industrial",
        "name": "Poswak Junk Shop"
      }
    },
    {
      "id": "osm-0148",
      "name": "Waste Disposal (OSM 6011676469)",
      "lat": 7.0707348,
      "lng": 125.6239446,
      "area_sqm": null,
      "type": "Waste Disposal",
      "confidence": null,
      "detected_date": null,
      "source": "OpenStreetMap",
      "osm_id": 6011676469,
      "osm_type": "node",
      "tags": {
        "amenity": "waste_disposal"
      }
    },
    {
      "id": "osm-0149",
      "name": "Recycling Center (OSM 6041403266)",
      "lat": 8.1943967,
      "lng": 124.1847529,
      "area_sqm": null,
      "type": "Recycling Center",
      "confidence": null,
      "detected_date": null,
      "source": "OpenStreetMap",
      "osm_id": 6041403266,
      "osm_type": "node",
      "tags": {
        "amenity": "recycling",
        "recycling_type": "centre"
      }
    },
    {
      "id": "osm-0150",
      "name": "Recycling Center (OSM 6041449806)",
      "lat": 8.2500798,
      "lng": 124.2448656,
      "area_sqm": null,
      "type": "Recycling Center",
      "confidence": null,
      "detected_date": null,
      "source": "OpenStreetMap",
      "osm_id": 6041449806,
      "osm_type": "node",
      "tags": {
        "amenity": "recycling",
        "recycling_type": "centre"
      }
    },
    {
      "id": "osm-0151",
      "name": "Rich and Poor Junkshop",
      "lat": 8.2434448,
      "lng": 124.245247,
      "area_sqm": null,
      "type": "Recycling Center",
      "confidence": null,
      "detected_date": null,
      "source": "OpenStreetMap",
      "osm_id": 6041449820,
      "osm_type": "node",
      "tags": {
        "amenity": "recycling",
        "name": "Rich and Poor Junkshop",
        "recycling_type": "centre"
      }
    },
    {
      "id": "osm-0152",
      "name": "3 Three Angels JunkShop",
      "lat": 8.2420392,
      "lng": 124.246285,
      "area_sqm": null,
      "type": "Recycling Center",
      "confidence": null,
      "detected_date": null,
      "source": "OpenStreetMap",
      "osm_id": 6041449826,
      "osm_type": "node",
      "tags": {
        "amenity": "recycling",
        "name": "3 Three Angels JunkShop",
        "recycling_type": "centre"
      }
    },
    {
      "id": "osm-0153",
      "name": "Ykuan Junkshop",
      "lat": 8.2425695,
      "lng": 124.2473751,
      "area_sqm": null,
      "type": "Recycling Center",
      "confidence": null,
      "detected_date": null,
      "source": "OpenStreetMap",
      "osm_id": 6041453030,
      "osm_type": "node",
      "tags": {
        "amenity": "recycling",
        "name": "Ykuan Junkshop",
        "recycling_type": "centre"
      }
    },
    {
      "id": "osm-0154",
      "name": "Recycling Center (OSM 6041491693)",
      "lat": 8.26187,
      "lng": 124.29221,
      "area_sqm": null,
      "type": "Recycling Center",
      "confidence": null,
      "detected_date": null,
      "source": "OpenStreetMap",
      "osm_id": 6041491693,
      "osm_type": "node",
      "tags": {
        "amenity": "recycling",
        "recycling_type": "centre"
      }
    },
    {
      "id": "osm-0155",
      "name": "Recycling Center (OSM 6041735359)",
      "lat": 8.2405031,
      "lng": 124.3141385,
      "area_sqm": null,
      "type": "Recycling Center",
      "confidence": null,
      "detected_date": null,
      "source": "OpenStreetMap",
      "osm_id": 6041735359,
      "osm_type": "node",
      "tags": {
        "amenity": "recycling",
        "recycling_type": "centre"
      }
    },
    {
      "id": "osm-0156",
      "name": "Recycling Center (OSM 6041968720)",
      "lat": 8.25818,
      "lng": 124.26756,
      "area_sqm": null,
      "type": "Recycling Center",
      "confidence": null,
      "detected_date": null,
      "source": "OpenStreetMap",
      "osm_id": 6041968720,
      "osm_type": "node",
      "tags": {
        "amenity": "recycling",
        "recycling_type": "centre"
      }
    },
    {
      "id": "osm-0157",
      "name": "F.E Junk Shop",
      "lat": 16.7160351,
      "lng": 120.3465758,
      "area_sqm": null,
      "type": "Recycling Center",
      "confidence": null,
      "detected_date": null,
      "source": "OpenStreetMap",
      "osm_id": 6059133348,
      "osm_type": "node",
      "tags": {
        "addr:province": "La Union",
        "addr:town": "Bacnotan",
        "addr:village": "Poblacion",
        "amenity": "recycling",
        "name": "F.E Junk Shop",
        "recycling_type": "centre",
        "shop": "yes"
      }
    },
    {
      "id": "osm-0158",
      "name": "MRF",
      "lat": 11.6898621,
      "lng": 125.0503131,
      "area_sqm": null,
      "type": "Recycling Center",
      "confidence": null,
      "detected_date": null,
      "source": "OpenStreetMap",
      "osm_id": 6072284580,
      "osm_type": "node",
      "tags": {
        "amenity": "recycling",
        "name": "MRF",
        "recycling_type": "centre"
      }
    },
    {
      "id": "osm-0159",
      "name": "Canteras Junkshop",
      "lat": 13.9376779,
      "lng": 120.7267059,
      "area_sqm": null,
      "type": "Recycling Center",
      "confidence": null,
      "detected_date": null,
      "source": "OpenStreetMap",
      "osm_id": 6117522562,
      "osm_type": "node",
      "tags": {
        "amenity": "recycling",
        "name": "Canteras Junkshop",
        "recycling_type": "centre"
      }
    },
    {
      "id": "osm-0160",
      "name": "Recycling Center (OSM 6143259429)",
      "lat": 11.84875,
      "lng": 122.0521088,
      "area_sqm": null,
      "type": "Recycling Center",
      "confidence": null,
      "detected_date": null,
      "source": "OpenStreetMap",
      "osm_id": 6143259429,
      "osm_type": "node",
      "tags": {
        "amenity": "recycling",
        "recycling_type": "centre"
      }
    },
    {
      "id": "osm-0161",
      "name": "Buena's Junk Shop",
      "lat": 11.8454444,
      "lng": 122.0586944,
      "area_sqm": null,
      "type": "Recycling Center",
      "confidence": null,
      "detected_date": null,
      "source": "OpenStreetMap",
      "osm_id": 6143259446,
      "osm_type": "node",
      "tags": {
        "amenity": "recycling",
        "name": "Buena's Junk Shop",
        "recycling_type": "centre"
      }
    },
    {
      "id": "osm-0162",
      "name": "Brgy Recovery Facility",
      "lat": 8.1944253,
      "lng": 124.1845279,
      "area_sqm": null,
      "type": "Recycling Center",
      "confidence": null,
      "detected_date": null,
      "source": "OpenStreetMap",
      "osm_id": 6148878844,
      "osm_type": "node",
      "tags": {
        "amenity": "recycling",
        "name": "Brgy Recovery Facility",
        "recycling_type": "centre"
      }
    },
    {
      "id": "osm-0163",
      "name": "Recycling Center (OSM 6163193063)",
      "lat": 14.5412161,
      "lng": 121.0837662,
      "area_sqm": null,
      "type": "Recycling Center",
      "confidence": null,
      "detected_date": null,
      "source": "OpenStreetMap",
      "osm_id": 6163193063,
      "osm_type": "node",
      "tags": {
        "amenity": "recycling",
        "recycling_type": "centre"
      }
    },
    {
      "id": "osm-0164",
      "name": "Recycling Center (OSM 6163193073)",
      "lat": 14.5469077,
      "lng": 121.0877728,
      "area_sqm": null,
      "type": "Recycling Center",
      "confidence": null,
      "detected_date": null,
      "source": "OpenStreetMap",
      "osm_id": 6163193073,
      "osm_type": "node",
      "tags": {
        "amenity": "recycling",
        "recycling_type": "centre"
      }
    },
    {
      "id": "osm-0165",
      "name": "RCS Junkshop",
      "lat": 14.5411513,
      "lng": 121.0864652,
      "area_sqm": null,
      "type": "Recycling Center",
      "confidence": null,
      "detected_date": null,
      "source": "OpenStreetMap",
      "osm_id": 6163193078,
      "osm_type": "node",
      "tags": {
        "amenity": "recycling",
        "description": "junkshop",
        "name": "RCS Junkshop"
      }
    },
    {
      "id": "osm-0166",
      "name": "Waste Disposal (OSM 6163382883)",
      "lat": 11.8395278,
      "lng": 121.8888889,
      "area_sqm": null,
      "type": "Waste Disposal",
      "confidence": null,
      "detected_date": null,
      "source": "OpenStreetMap",
      "osm_id": 6163382883,
      "osm_type": "node",
      "tags": {
        "amenity": "waste_disposal"
      }
    },
    {
      "id": "osm-0167",
      "name": "Recycling Center (OSM 6163433762)",
      "lat": 11.8499722,
      "lng": 121.9093333,
      "area_sqm": null,
      "type": "Recycling Center",
      "confidence": null,
      "detected_date": null,
      "source": "OpenStreetMap",
      "osm_id": 6163433762,
      "osm_type": "node",
      "tags": {
        "amenity": "recycling",
        "recycling_type": "centre"
      }
    },
    {
      "id": "osm-0168",
      "name": "Recycling Center (OSM 6163433769)",
      "lat": 11.8456111,
      "lng": 121.9097868,
      "area_sqm": null,
      "type": "Recycling Center",
      "confidence": null,
      "detected_date": null,
      "source": "OpenStreetMap",
      "osm_id": 6163433769,
      "osm_type": "node",
      "tags": {
        "amenity": "recycling",
        "recycling_type": "centre"
      }
    },
    {
      "id": "osm-0169",
      "name": "Recycling Center (OSM 6166580734)",
      "lat": 14.532967,
      "lng": 121.080354,
      "area_sqm": null,
      "type": "Recycling Center",
      "confidence": null,
      "detected_date": null,
      "source": "OpenStreetMap",
      "osm_id": 6166580734,
      "osm_type": "node",
      "tags": {
        "amenity": "recycling",
        "recycling_type": "centre"
      }
    },
    {
      "id": "osm-0170",
      "name": "BMWF",
      "lat": 8.25309,
      "lng": 124.26901,
      "area_sqm": null,
      "type": "Recycling Center",
      "confidence": null,
      "detected_date": null,
      "source": "OpenStreetMap",
      "osm_id": 6199543719,
      "osm_type": "node",
      "tags": {
        "amenity": "recycling",
        "name": "BMWF",
        "recycling_type": "centre"
      }
    },
    {
      "id": "osm-0171",
      "name": "Septage Treatment Plant",
      "lat": 10.3142461,
      "lng": 123.9211424,
      "area_sqm": null,
      "type": "Wastewater Plant",
      "confidence": null,
      "detected_date": null,
      "source": "OpenStreetMap",
      "osm_id": 6228805801,
      "osm_type": "node",
      "tags": {
        "man_made": "wastewater_plant",
        "name": "Septage Treatment Plant",
        "operator": "Cebu City Goverment"
      }
    },
    {
      "id": "osm-0172",
      "name": "Recycling Center (OSM 6235303985)",
      "lat": 14.5714223,
      "lng": 121.0063635,
      "area_sqm": null,
      "type": "Recycling Center",
      "confidence": null,
      "detected_date": null,
      "source": "OpenStreetMap",
      "osm_id": 6235303985,
      "osm_type": "node",
      "tags": {
        "amenity": "recycling"
      }
    },
    {
      "id": "osm-0173",
      "name": "Materials Recovery Facility",
      "lat": 9.5360635,
      "lng": 125.5240241,
      "area_sqm": null,
      "type": "Waste Disposal",
      "confidence": null,
      "detected_date": null,
      "source": "OpenStreetMap",
      "osm_id": 6240955986,
      "osm_type": "node",
      "tags": {
        "amenity": "waste_disposal",
        "name": "Materials Recovery Facility"
      }
    },
    {
      "id": "osm-0174",
      "name": "Material Recovery Facility",
      "lat": 9.5844228,
      "lng": 125.7382563,
      "area_sqm": null,
      "type": "Waste Disposal",
      "confidence": null,
      "detected_date": null,
      "source": "OpenStreetMap",
      "osm_id": 6240992464,
      "osm_type": "node",
      "tags": {
        "amenity": "waste_disposal",
        "name": "Material Recovery Facility"
      }
    },
    {
      "id": "osm-0175",
      "name": "Materials Recovery Facility",
      "lat": 9.5382351,
      "lng": 125.524053,
      "area_sqm": null,
      "type": "Waste Disposal",
      "confidence": null,
      "detected_date": null,
      "source": "OpenStreetMap",
      "osm_id": 6241036852,
      "osm_type": "node",
      "tags": {
        "amenity": "waste_disposal",
        "name": "Materials Recovery Facility"
      }
    },
    {
      "id": "osm-0176",
      "name": "Material Recovery Facility",
      "lat": 9.5856212,
      "lng": 125.7379981,
      "area_sqm": null,
      "type": "Waste Disposal",
      "confidence": null,
      "detected_date": null,
      "source": "OpenStreetMap",
      "osm_id": 6241046578,
      "osm_type": "node",
      "tags": {
        "amenity": "waste_disposal",
        "name": "Material Recovery Facility"
      }
    },
    {
      "id": "osm-0177",
      "name": "Material Recovery Facility",
      "lat": 9.576971,
      "lng": 125.7346068,
      "area_sqm": null,
      "type": "Waste Disposal",
      "confidence": null,
      "detected_date": null,
      "source": "OpenStreetMap",
      "osm_id": 6241061050,
      "osm_type": "node",
      "tags": {
        "amenity": "waste_disposal",
        "name": "Material Recovery Facility"
      }
    },
    {
      "id": "osm-0178",
      "name": "Material Recovery Facility",
      "lat": 9.5763199,
      "lng": 125.7349966,
      "area_sqm": null,
      "type": "Waste Disposal",
      "confidence": null,
      "detected_date": null,
      "source": "OpenStreetMap",
      "osm_id": 6241069388,
      "osm_type": "node",
      "tags": {
        "amenity": "waste_disposal",
        "name": "Material Recovery Facility"
      }
    },
    {
      "id": "osm-0179",
      "name": "P- Rosal MRF",
      "lat": 9.5359137,
      "lng": 125.5209872,
      "area_sqm": null,
      "type": "Waste Disposal",
      "confidence": null,
      "detected_date": null,
      "source": "OpenStreetMap",
      "osm_id": 6241110743,
      "osm_type": "node",
      "tags": {
        "amenity": "waste_disposal",
        "name": "P- Rosal MRF"
      }
    },
    {
      "id": "osm-0180",
      "name": "P- Lesio MRF",
      "lat": 9.5360354,
      "lng": 125.5207404,
      "area_sqm": null,
      "type": "Waste Disposal",
      "confidence": null,
      "detected_date": null,
      "source": "OpenStreetMap",
      "osm_id": 6241121458,
      "osm_type": "node",
      "tags": {
        "amenity": "waste_disposal",
        "name": "P- Lesio MRF"
      }
    },
    {
      "id": "osm-0181",
      "name": "Materials Recovery Facility",
      "lat": 9.7406544,
      "lng": 125.544042,
      "area_sqm": null,
      "type": "Waste Disposal",
      "confidence": null,
      "detected_date": null,
      "source": "OpenStreetMap",
      "osm_id": 6243715994,
      "osm_type": "node",
      "tags": {
        "amenity": "waste_disposal",
        "name": "Materials Recovery Facility"
      }
    },
    {
      "id": "osm-0182",
      "name": "Materials Recovery Facility",
      "lat": 9.7388663,
      "lng": 125.5444794,
      "area_sqm": null,
      "type": "Recycling Center",
      "confidence": null,
      "detected_date": null,
      "source": "OpenStreetMap",
      "osm_id": 6243725245,
      "osm_type": "node",
      "tags": {
        "amenity": "recycling",
        "name": "Materials Recovery Facility",
        "recycling_type": "centre"
      }
    },
    {
      "id": "osm-0183",
      "name": "Materials Recovery Facility",
      "lat": 9.7378555,
      "lng": 125.5442021,
      "area_sqm": null,
      "type": "Waste Disposal",
      "confidence": null,
      "detected_date": null,
      "source": "OpenStreetMap",
      "osm_id": 6243749234,
      "osm_type": "node",
      "tags": {
        "amenity": "waste_disposal",
        "name": "Materials Recovery Facility"
      }
    },
    {
      "id": "osm-0184",
      "name": "Materials Recovery Facility",
      "lat": 9.7400293,
      "lng": 125.5541415,
      "area_sqm": null,
      "type": "Waste Disposal",
      "confidence": null,
      "detected_date": null,
      "source": "OpenStreetMap",
      "osm_id": 6243784920,
      "osm_type": "node",
      "tags": {
        "amenity": "waste_disposal",
        "name": "Materials Recovery Facility"
      }
    },
    {
      "id": "osm-0185",
      "name": "Materials Recovery Facility",
      "lat": 9.7482825,
      "lng": 125.541081,
      "area_sqm": null,
      "type": "Waste Disposal",
      "confidence": null,
      "detected_date": null,
      "source": "OpenStreetMap",
      "osm_id": 6245793649,
      "osm_type": "node",
      "tags": {
        "amenity": "waste_disposal",
        "name": "Materials Recovery Facility"
      }
    },
    {
      "id": "osm-0186",
      "name": "Materials Recovery Facility",
      "lat": 9.737075,
      "lng": 125.4692331,
      "area_sqm": null,
      "type": "Waste Disposal",
      "confidence": null,
      "detected_date": null,
      "source": "OpenStreetMap",
      "osm_id": 6248373478,
      "osm_type": "node",
      "tags": {
        "amenity": "waste_disposal",
        "name": "Materials Recovery Facility"
      }
    },
    {
      "id": "osm-0187",
      "name": "Materials Recovery Facility",
      "lat": 9.4718982,
      "lng": 125.7219493,
      "area_sqm": null,
      "type": "Waste Disposal",
      "confidence": null,
      "detected_date": null,
      "source": "OpenStreetMap",
      "osm_id": 6282074604,
      "osm_type": "node",
      "tags": {
        "amenity": "waste_disposal",
        "name": "Materials Recovery Facility"
      }
    },
    {
      "id": "osm-0188",
      "name": "Recycling Center (OSM 6303247095)",
      "lat": 14.1096758,
      "lng": 121.1431288,
      "area_sqm": null,
      "type": "Recycling Center",
      "confidence": null,
      "detected_date": null,
      "source": "OpenStreetMap",
      "osm_id": 6303247095,
      "osm_type": "node",
      "tags": {
        "amenity": "recycling"
      }
    },
    {
      "id": "osm-0189",
      "name": "Recycling Center (OSM 6335055366)",
      "lat": 14.4761225,
      "lng": 121.0508091,
      "area_sqm": null,
      "type": "Recycling Center",
      "confidence": null,
      "detected_date": null,
      "source": "OpenStreetMap",
      "osm_id": 6335055366,
      "osm_type": "node",
      "tags": {
        "amenity": "recycling",
        "recycling_type": "centre"
      }
    },
    {
      "id": "osm-0190",
      "name": "MRF",
      "lat": 14.48539,
      "lng": 121.0484238,
      "area_sqm": null,
      "type": "Scrap Yard",
      "confidence": null,
      "detected_date": null,
      "source": "OpenStreetMap",
      "osm_id": 6346732552,
      "osm_type": "node",
      "tags": {
        "industrial": "scrap_yard",
        "name": "MRF"
      }
    },
    {
      "id": "osm-0191",
      "name": "Junk Shop",
      "lat": 14.4857471,
      "lng": 121.0474608,
      "area_sqm": null,
      "type": "Scrap Yard",
      "confidence": null,
      "detected_date": null,
      "source": "OpenStreetMap",
      "osm_id": 6346732564,
      "osm_type": "node",
      "tags": {
        "industrial": "scrap_yard",
        "landuse": "industrial",
        "name": "Junk Shop"
      }
    },
    {
      "id": "osm-0192",
      "name": "Junk Shop",
      "lat": 14.4860255,
      "lng": 121.0473956,
      "area_sqm": null,
      "type": "Scrap Yard",
      "confidence": null,
      "detected_date": null,
      "source": "OpenStreetMap",
      "osm_id": 6346732566,
      "osm_type": "node",
      "tags": {
        "industrial": "scrap_yard",
        "landuse": "industrial",
        "name": "Junk Shop"
      }
    },
    {
      "id": "osm-0193",
      "name": "Recycling Center (OSM 6390071659)",
      "lat": 14.4979566,
      "lng": 121.0603795,
      "area_sqm": null,
      "type": "Recycling Center",
      "confidence": null,
      "detected_date": null,
      "source": "OpenStreetMap",
      "osm_id": 6390071659,
      "osm_type": "node",
      "tags": {
        "addr:street": "Mariano Street",
        "amenity": "recycling",
        "fixme": "name",
        "note": "Junk Shop",
        "recycling_type": "centre"
      }
    },
    {
      "id": "osm-0194",
      "name": "Junk Shop",
      "lat": 14.500425,
      "lng": 121.0658278,
      "area_sqm": null,
      "type": "Scrap Yard",
      "confidence": null,
      "detected_date": null,
      "source": "OpenStreetMap",
      "osm_id": 6390072308,
      "osm_type": "node",
      "tags": {
        "industrial": "scrap_yard",
        "landuse": "industrial",
        "name": "Junk Shop"
      }
    },
    {
      "id": "osm-0195",
      "name": "Tuding Material Recovery Facility",
      "lat": 16.411828,
      "lng": 120.6401254,
      "area_sqm": null,
      "type": "Recycling Center",
      "confidence": null,
      "detected_date": null,
      "source": "OpenStreetMap",
      "osm_id": 6407890164,
      "osm_type": "node",
      "tags": {
        "addr:barangay": "Tuding",
        "addr:city": "Itogon",
        "addr:postcode": "2604",
        "addr:province": "Benguet",
        "amenity": "recycling",
        "name": "Tuding Material Recovery Facility",
        "recycling_type": "centre"
      }
    },
    {
      "id": "osm-0196",
      "name": "Material Recovery Facility",
      "lat": 14.5202669,
      "lng": 121.0617804,
      "area_sqm": null,
      "type": "Recycling Center",
      "confidence": null,
      "detected_date": null,
      "source": "OpenStreetMap",
      "osm_id": 6448949990,
      "osm_type": "node",
      "tags": {
        "amenity": "recycling",
        "name": "Material Recovery Facility",
        "operator:type": "public",
        "recycling_type": "centre"
      }
    },
    {
      "id": "osm-0197",
      "name": "Recycling Center (OSM 6490334461)",
      "lat": 14.5256226,
      "lng": 121.0744347,
      "area_sqm": null,
      "type": "Recycling Center",
      "confidence": null,
      "detected_date": null,
      "source": "OpenStreetMap",
      "osm_id": 6490334461,
      "osm_type": "node",
      "tags": {
        "amenity": "recycling",
        "description": "mrf",
        "recycling_type": "centre"
      }
    },
    {
      "id": "osm-0198",
      "name": "Recycling Center (OSM 6490336400)",
      "lat": 14.5279542,
      "lng": 121.0818095,
      "area_sqm": null,
      "type": "Recycling Center",
      "confidence": null,
      "detected_date": null,
      "source": "OpenStreetMap",
      "osm_id": 6490336400,
      "osm_type": "node",
      "tags": {
        "addr:street": "Bambang ni Peles Street",
        "amenity": "recycling",
        "fixme": "name",
        "recycling_type": "centre"
      }
    },
    {
      "id": "osm-0199",
      "name": "Ugong Materials Recovery Facility",
      "lat": 14.590113,
      "lng": 121.0824338,
      "area_sqm": null,
      "type": "Recycling Center",
      "confidence": null,
      "detected_date": null,
      "source": "OpenStreetMap",
      "osm_id": 6501474057,
      "osm_type": "node",
      "tags": {
        "amenity": "recycling",
        "description": "mrf",
        "name": "Ugong Materials Recovery Facility",
        "recycling_type": "centre"
      }
    },
    {
      "id": "osm-0200",
      "name": "San Jose Materials Recovery Facility",
      "lat": 14.5611523,
      "lng": 121.0732669,
      "area_sqm": null,
      "type": "Recycling Center",
      "confidence": null,
      "detected_date": null,
      "source": "OpenStreetMap",
      "osm_id": 6501984019,
      "osm_type": "node",
      "tags": {
        "amenity": "recycling",
        "name": "San Jose Materials Recovery Facility",
        "recycling_type": "centre"
      }
    },
    {
      "id": "osm-0201",
      "name": "Recycling Center (OSM 6507616356)",
      "lat": 14.5573969,
      "lng": 121.0798613,
      "area_sqm": null,
      "type": "Recycling Center",
      "confidence": null,
      "detected_date": null,
      "source": "OpenStreetMap",
      "osm_id": 6507616356,
      "osm_type": "node",
      "tags": {
        "amenity": "recycling",
        "description": "mrf",
        "recycling_type": "centre"
      }
    },
    {
      "id": "osm-0202",
      "name": "Arsenio Paragas Junkshop",
      "lat": 14.6152476,
      "lng": 121.0866624,
      "area_sqm": null,
      "type": "Recycling Center",
      "confidence": null,
      "detected_date": null,
      "source": "OpenStreetMap",
      "osm_id": 6524138863,
      "osm_type": "node",
      "tags": {
        "amenity": "recycling",
        "description": "junkshop",
        "name": "Arsenio Paragas Junkshop"
      }
    },
    {
      "id": "osm-0203",
      "name": "Arsenio Paragas Junskhop",
      "lat": 14.6148443,
      "lng": 121.0867487,
      "area_sqm": null,
      "type": "Recycling Center",
      "confidence": null,
      "detected_date": null,
      "source": "OpenStreetMap",
      "osm_id": 6524138864,
      "osm_type": "node",
      "tags": {
        "amenity": "recycling",
        "description": "junkshop",
        "name": "Arsenio Paragas Junskhop"
      }
    },
    {
      "id": "osm-0204",
      "name": "Waste Disposal (OSM 6530757309)",
      "lat": 14.5871864,
      "lng": 121.037539,
      "area_sqm": null,
      "type": "Waste Disposal",
      "confidence": null,
      "detected_date": null,
      "source": "OpenStreetMap",
      "osm_id": 6530757309,
      "osm_type": "node",
      "tags": {
        "amenity": "waste_disposal",
        "waste": "trash"
      }
    },
    {
      "id": "osm-0205",
      "name": "Recycling Center (OSM 6533663821)",
      "lat": 14.5798143,
      "lng": 121.0302199,
      "area_sqm": null,
      "type": "Recycling Center",
      "confidence": null,
      "detected_date": null,
      "source": "OpenStreetMap",
      "osm_id": 6533663821,
      "osm_type": "node",
      "tags": {
        "amenity": "recycling",
        "recycling_type": "centre"
      }
    },
    {
      "id": "osm-0206",
      "name": "Recycling Center (OSM 6541304624)",
      "lat": 14.5904394,
      "lng": 121.0838651,
      "area_sqm": null,
      "type": "Recycling Center",
      "confidence": null,
      "detected_date": null,
      "source": "OpenStreetMap",
      "osm_id": 6541304624,
      "osm_type": "node",
      "tags": {
        "amenity": "recycling",
        "description": "mrf",
        "recycling_type": "centre"
      }
    },
    {
      "id": "osm-0207",
      "name": "Recycling Center (OSM 6541304630)",
      "lat": 14.5885231,
      "lng": 121.0859898,
      "area_sqm": null,
      "type": "Recycling Center",
      "confidence": null,
      "detected_date": null,
      "source": "OpenStreetMap",
      "osm_id": 6541304630,
      "osm_type": "node",
      "tags": {
        "amenity": "recycling",
        "description": "mrf",
        "recycling_type": "centre"
      }
    },
    {
      "id": "osm-0208",
      "name": "S R Junk Shop",
      "lat": 14.6095811,
      "lng": 121.0927421,
      "area_sqm": null,
      "type": "Recycling Center",
      "confidence": null,
      "detected_date": null,
      "source": "OpenStreetMap",
      "osm_id": 6541717606,
      "osm_type": "node",
      "tags": {
        "amenity": "recycling",
        "description": "junkshop",
        "name": "S R Junk Shop"
      }
    },
    {
      "id": "osm-0209",
      "name": "Waste Disposal (OSM 6550527885)",
      "lat": 16.4550015,
      "lng": 120.5689886,
      "area_sqm": null,
      "type": "Waste Disposal",
      "confidence": null,
      "detected_date": null,
      "source": "OpenStreetMap",
      "osm_id": 6550527885,
      "osm_type": "node",
      "tags": {
        "amenity": "waste_disposal"
      }
    },
    {
      "id": "osm-0210",
      "name": "Waste Disposal (OSM 6550533285)",
      "lat": 16.4539277,
      "lng": 120.5691185,
      "area_sqm": null,
      "type": "Waste Disposal",
      "confidence": null,
      "detected_date": null,
      "source": "OpenStreetMap",
      "osm_id": 6550533285,
      "osm_type": "node",
      "tags": {
        "amenity": "waste_disposal"
      }
    },
    {
      "id": "osm-0211",
      "name": "Waste Disposal (OSM 6592761185)",
      "lat": 10.5475424,
      "lng": 122.8505729,
      "area_sqm": null,
      "type": "Waste Disposal",
      "confidence": null,
      "detected_date": null,
      "source": "OpenStreetMap",
      "osm_id": 6592761185,
      "osm_type": "node",
      "tags": {
        "amenity": "waste_disposal",
        "operator": "Lelen"
      }
    },
    {
      "id": "osm-0212",
      "name": "Nora's Surplus Items",
      "lat": 9.3003681,
      "lng": 123.3075415,
      "area_sqm": null,
      "type": "Recycling Center",
      "confidence": null,
      "detected_date": null,
      "source": "OpenStreetMap",
      "osm_id": 6639155584,
      "osm_type": "node",
      "tags": {
        "amenity": "recycling",
        "name": "Nora's Surplus Items",
        "recycling_type": "centre"
      }
    },
    {
      "id": "osm-0213",
      "name": "Borix Junk Shop",
      "lat": 13.0446319,
      "lng": 121.4680134,
      "area_sqm": null,
      "type": "Recycling Center",
      "confidence": null,
      "detected_date": null,
      "source": "OpenStreetMap",
      "osm_id": 6717812833,
      "osm_type": "node",
      "tags": {
        "addr:street": "Calapan South Road",
        "amenity": "recycling",
        "name": "Borix Junk Shop",
        "recycling_type": "centre"
      }
    },
    {
      "id": "osm-0214",
      "name": "Recycling Center (OSM 6734442485)",
      "lat": 7.0716271,
      "lng": 125.6142065,
      "area_sqm": null,
      "type": "Recycling Center",
      "confidence": null,
      "detected_date": null,
      "source": "OpenStreetMap",
      "osm_id": 6734442485,
      "osm_type": "node",
      "tags": {
        "amenity": "recycling",
        "fixme": "update",
        "ref": "MRF"
      }
    },
    {
      "id": "osm-0215",
      "name": "Scrap Yard (OSM 6822065801)",
      "lat": 9.6956451,
      "lng": 124.402418,
      "area_sqm": null,
      "type": "Scrap Yard",
      "confidence": null,
      "detected_date": null,
      "source": "OpenStreetMap",
      "osm_id": 6822065801,
      "osm_type": "node",
      "tags": {
        "industrial": "scrap_yard",
        "landuse": "industrial"
      }
    },